BOROUGH,Cultural Venue Type,site_name,address1,address2,address3,borough_code,borough_name,latitude,longitude,easting,northing,os_addressbase_uprn,ward_2018_code,ward_2018_name,website,gss_code,runtime
Hackney,Archives,Railfuture,207 The Colourworks ,2 Abbot Street,,E09000012,Hackney,51.54712953781063,-0.07498148747669109,533575.9636815286,184892.92257181404,10008240634,E05009370,Dalston,https://www.railfuture.org.uk/Welcome+to+Railfuture,E09000012,12/27/2020
Hackney,Archives,Campaign for Better Transport ,16 Waterside ,44-48 Wharf Road,,E09000012,Hackney,51.53197230062713,-0.09615274146698316,532151.9640730751,183168.9230419107,10008319406,E05009378,Hoxton West,https://bettertransport.org.uk/,E09000012,12/27/2020
Hackney,Archives,British Plastics Federation,5 - 6 Bath Place ,Rivington Street,,E09000012,Hackney,51.526312808735966,-0.08272206340316252,533099.9638113496,182563.92320476874,10008338301,E05009377,Hoxton East & Shoreditch,http://www.bpf.co.uk/,E09000012,12/27/2020
Hackney,Archives,Alpine Club Archives,55/56 Charlotte Road,,,E09000012,Hackney,51.52591938983411,-0.08066262827919764,533243.9637724999,182523.92321572924,10008348373,E05009377,Hoxton East & Shoreditch,http://www.alpine-club.org.uk/ac2/ac-media/archive,E09000012,12/27/2020
Hackney,Archives,Geffrye Museum,Kingsland Road,,,E09000012,Hackney,51.53155722087009,-0.07624406710106549,533533.9636967665,183158.9230426881,100021000000,E05009375,Haggerston,https://www.geffrye-museum.org.uk/,E09000012,12/27/2020
Hackney,Archives,National Society for the Prevention of Cruelty to Children,Library and Information Service Weston House 42 Curtain Road,,,E09000012,Hackney,51.52340480570529,-0.0801269229761264,533288.463760654,182245.27329214354,100023000000,E05009377,Hoxton East & Shoreditch,https://www.nspcc.org.uk/,E09000012,12/27/2020
Hackney,Archives,Livability (Shaftesbury Society),50 Scrutton Street,,,E09000012,Hackney,51.52326552439398,-0.08114908585344721,533217.963779677,182227.92329686502,100023000000,E05009377,Hoxton East & Shoreditch,https://livability.org.uk/about-us/history-and-track-record/,E09000012,12/27/2020
Hackney,Archives,Museum of London: London Archaeological Archive and Research Centre,Mortimer Wheeler House ,46 Eagle Wharf Road,,E09000012,Hackney,51.53473431182592,-0.09070233118903123,532521.9639728265,183485.92295515566,100023000000,E05009378,Hoxton West,https://www.museumoflondon.org.uk/collections/other-collection-databases-and-libraries/museum-london-archaeological-archive,E09000012,12/27/2020
Hackney,Archives,"Hackney Public Libraries, Stoke Newington District Library", Church Street,Stoke Newington,,E09000012,Hackney,51.56161890191298,-0.08279582592299013,532991.9638408129,186489.92213814048,100023000000,E05009369,Clissold,https://www.hackney.gov.uk/stoke-newington-library,E09000012,12/27/2020
Hackney,Artists workspaces,Netil House,Netil House,1 Westgate Street,,E09000012,Hackney,51.53756412429039,-0.05770595080742789,534801.9633513292,183860.92285270453,100023015639,E05009381,London Fields,eatworkart.com,E09000012,12/27/2020
Hackney,Artists workspaces,Worship Street,50 Worship St,Shoreditch,,E09000012,Hackney,51.52192450310802,-0.08382905234147528,533035.9638291803,182073.92333907966,10008400568,E05009377,Hoxton East & Shoreditch,http://www.v22collection.com,E09000012,12/27/2020
Hackney,Artists workspaces,,45 Coronet Street,,,E09000012,Hackney,51.52707149707812,-0.08182516380314132,533159.9637956934,182649.923181444,10091816467,E05009377,Hoxton East & Shoreditch,http://www.standpointlondon.co.uk/,E09000012,12/27/2020
Hackney,Artists workspaces,,130 Hoxton Street,,,E09000012,Hackney,51.531750173675704,-0.07978283904772866,533287.9637636242,183173.9230389165,100023135706,E05009377,Hoxton East & Shoreditch,www.hoxtonhall.co.uk,E09000012,12/27/2020
Hackney,Artists workspaces,Sara Lane,60 Stanway Street,Hackney,,E09000012,Hackney,51.533183988806535,-0.07892943163025179,533342.963749344,183334.92299500306,100000000000,E05009377,Hoxton East & Shoreditch,www.spacestudios.org.uk,E09000012,12/27/2020
Hackney,Artists workspaces,Timber Wharf -Block C,238-240 Kingsland Road,Hackney,,E09000012,Hackney,51.53589392288307,-0.07584196069354449,533549.1636924125,183641.91291124676,100023546631,E05009375,Haggerston,www.spacestudios.org.uk,E09000012,12/27/2020
Hackney,Artists workspaces,Orsman Road,15 Orsman Road,Hoxton,,E09000012,Hackney,51.53614876850161,-0.07876129506914484,533345.963747808,183664.92290528468,10008242975,E05009377,Hoxton East & Shoreditch,www.acme.org.uk,E09000012,12/27/2020
Hackney,Artists workspaces,Timber Wharf -Arches,238-240 Kingsland Road,Hackney,,E09000012,Hackney,51.5361328259809,-0.0758566849218808,533547.443692767,183668.45290405536,10008324060,E05009375,Haggerston,www.spacestudios.org.uk,E09000012,12/27/2020
Hackney,Artists workspaces,Studio Manifold,Ermine Mews,Laburnum Street,,E09000012,Hackney,51.5361328259809,-0.0758566849218808,533547.443692767,183668.45290405536,10008324060,E05009375,Haggerston,http://www.studiomanifold.org/about/,E09000012,12/27/2020
Hackney,Artists workspaces,Southgate Studios,2-4 Southgate Road,,,E09000012,Hackney,51.537706907122065,-0.08604994580423678,532835.9638864268,183824.92286228162,10008307552,E05009371,De Beauvoir,http://www.whitechapelgallery.org/first-thursdays/galleries/southgate-studios/,E09000012,12/27/2020
Hackney,Artists workspaces,Hertford Road Studios,32A Hertford Road,,,E09000012,Hackney,51.53872642027063,-0.07856618856240037,533351.9637450228,183951.92282731098,10008225561,E05009371,De Beauvoir,http://www.artworksproject.com/docs/info.html,E09000012,12/27/2020
Hackney,Artists workspaces,Triangle,129-131 Mare Street,Hackney,,E09000012,Hackney,51.53844286320413,-0.05755317799893572,534809.9633487973,183958.92282633303,100000000000,E05009381,London Fields,www.spacestudios.org.uk,E09000012,12/27/2020
Hackney,Artists workspaces,The Rose Lipman Building ,43 De Beauvoir Road ,,,E09000012,Hackney,51.53896522011501,-0.08161328516228002,533139.9638029636,183972.92282169784,10091900721,E05009371,De Beauvoir,www.themillcoproject.co.uk,E09000012,12/27/2020
Hackney,Artists workspaces,,4-17 Frederick Terrace,,,E09000012,Hackney,51.53954390934675,-0.07577738694187287,533542.9636923351,184047.92280118552,10008320415,E05009381,London Fields,https://www.facebook.com/TERRACE.STUDIOS.GALLERY/,E09000012,12/27/2020
Hackney,Artists workspaces,Martello,10 Martello Street,Hackney,,E09000012,Hackney,51.54106796506199,-0.05859510376522764,534729.9633692558,184248.92274810397,100000000000,E05009381,London Fields,www.spacestudios.org.uk,E09000012,12/27/2020
Hackney,Artists workspaces,Victor House,282a Richmond Road,Hackney,,E09000012,Hackney,51.54387614364645,-0.05983132179991961,534635.9633941103,184558.92266359698,10008339866,E05009372,Hackney Central,www.spacestudios.org.uk,E09000012,12/27/2020
Hackney,Artists workspaces,,90 Wallis Rd ,,,E09000012,Hackney,51.544390167200106,-0.022729636245093623,537206.9626964316,184684.92262836907,10008337819,E05009374,Hackney Wick,https://mainyardstudios.co.uk,E09000012,12/27/2020
Hackney,Artists workspaces,,115 WALLIS ROAD,,,E09000012,Hackney,51.54470611656815,-0.023869727284914263,537126.9627178882,184717.92261954478,10008346528,E05009374,Hackney Wick,cellprojects.org,E09000012,12/27/2020
Hackney,Artists workspaces,117 Wallis Road,117 Wallis road ,Hackney Wick,,E09000012,Hackney,51.54473599781331,-0.023507873157731084,537151.9627111729,184721.92261838465,10008336713,E05009374,Hackney Wick,www.arbeit.org.uk / www.arebyte.com,E09000012,12/27/2020
Hackney,Artists workspaces,Deborah House,Retreat Place,Hackney,,E09000012,Hackney,51.54523780214394,-0.049216113134236614,535367.9631962366,184729.92261768132,10008342937,E05009376,Homerton,www.spacestudios.org.uk,E09000012,12/27/2020
Hackney,Artists workspaces,Limberg Films,169 Balls Pond Rd,,,E09000012,Hackney,51.54639143733322,-0.0826134123805808,533048.9638259168,184796.9225981509,10008297950,E05009371,De Beauvoir,www.artcoreint.net,E09000012,12/27/2020
Hackney,Artists workspaces,Belsham,16 Belsham Street,Hackney,,E09000012,Hackney,51.54606220356657,-0.05174816820526809,535189.9632450856,184816.92259365087,10091775557,E05009376,Homerton,www.spacestudios.org.uk,E09000012,12/27/2020
Hackney,Artists workspaces,Dalston,"10-16 Ashwin Street, London, E8 3DL",,,E09000012,Hackney,51.54674073882041,-0.0743055913247518,533623.9636684215,184850.92258319986,10008241411,E05009370,Dalston,http://www.v22collection.com,E09000012,12/27/2020
Hackney,Artists workspaces,"Francis Upritchard, Daniel Silver and Martino Gamper",Belsham Street,,,E09000012,Hackney,51.54645856497838,-0.05194081589765591,535175.4332490112,184860.6425816202,10091775559,E05009376,Homerton,,E09000012,12/27/2020
Hackney,Artists workspaces,,18 Ashwin St,,,E09000012,Hackney,51.54696351939817,-0.07472887821417483,533593.9636766168,184874.92257669335,10008346228,E05009370,Dalston,http://www.bootstrapcompany.co.uk/,E09000012,12/27/2020
Hackney,Artists workspaces,Sarabande Studios,22 Hertford Road,,,E09000012,Hackney,51.538128120579174,-0.07882211926892611,533335.9637496663,183884.92284552142,10008307498,E05009371,De Beauvoir,www.sarabandefoundation.org,E09000012,12/27/2020
Hackney,Artists workspaces,,352 Mare St,,,E09000012,Hackney,51.54737642419263,-0.0545334497755543,534992.9632981336,184957.9225546997,10008305042,E05009372,Hackney Central,www.asidebsidegallery.com,E09000012,12/27/2020
Hackney,Artists workspaces,Hatch,Unit G2,8 Mackintosh Lane,,E09000012,Hackney,51.54734988179597,-0.04255594379658404,535823.4630709207,184977.11255021318,10008301285,E05009376,Homerton,http://hatch-homerton.co.uk/,E09000012,12/27/2020
Hackney,Artists workspaces,Eastway,80c Eastway,Hackney,,E09000012,Hackney,51.547165620337815,-0.02948913346392996,536729.9628241634,184980.92254863697,10008341867,E05009374,Hackney Wick,www.spacestudios.org.uk,E09000012,12/27/2020
Hackney,Artists workspaces,,89 RIDLEY ROAD,,,E09000012,Hackney,51.54842550964212,-0.07067192685221745,533870.9636007152,185044.9225302153,10008320277,E05009370,Dalston,cellprojects.org,E09000012,12/27/2020
Hackney,Artists workspaces,Unit 7 Stamford Works,Gillett Square ,,,E09000012,Hackney,51.549321529464954,-0.07649003437914138,533464.9637116812,185133.9225064608,10008242129,E05009370,Dalston,http://opensource.london/about,E09000012,12/27/2020
Hackney,Artists workspaces,Matchmakers Wharf,Homerton Road,Homerton,,E09000012,Hackney,51.55170738521115,-0.031124787007065165,536602.9628581638,185482.92241189763,10008325827,E05009379,King's Park,www.acme.org.uk,E09000012,12/27/2020
Hackney,Artists workspaces,,10-28 millers Ave ,Dalston ,,E09000012,Hackney,51.55243575081055,-0.07446915636866624,533595.9636760732,185483.92241102236,10091940511,E05009382,Shacklewell,Absorb-arts.co.uk and printclublondon.com,E09000012,12/27/2020
Hackney,Artists workspaces,,73-75 & 89a Shacklewell Lane,,,E09000012,Hackney,51.552741383281,-0.07118186538160991,533822.9636141967,185523.92239975883,10008320328,E05009382,Shacklewell,www.lighthousespace.co.uk,E09000012,12/27/2020
Hackney,Artists workspaces,Cognative Collective,Unit 4 Tilia Rd,,,E09000012,Hackney,51.55290464757841,-0.05548064757326682,534910.9633200341,185570.92238727817,100023548454,E05009373,Hackney Downs,www.artcoreint.net,E09000012,12/27/2020
Hackney,Artists workspaces,,Hackney Downs Studios,Amhurst Terrace,,E09000012,Hackney,51.554763718531454,-0.06675435833936265,534123.9635328082,185756.92233602604,10008337805,E05009382,Shacklewell,eatworkart.com,E09000012,12/27/2020
Hackney,Artists workspaces,Stoke Newington,184 Church Street,Hackney,,E09000012,Hackney,51.56161890191298,-0.08279582592299013,532991.9638408129,186489.92213814048,100000000000,E05009369,Clissold,www.spacestudios.org.uk,E09000012,12/27/2020
Hackney,Artists workspaces,Praxis N16,First Floor,3-9 Belfast Rd,,E09000012,Hackney,51.565557512131704,-0.07237152054585755,533702.9636462005,186946.92201340577,10008313250,E05009368,Cazenove,,E09000012,12/27/2020
Hackney,Artists workspaces,Politi Arts,"1st Floor, Units 2-4",10-12G Manor Rd,,E09000012,Hackney,51.566021118856554,-0.07486255106486042,533528.963693572,186993.9220007668,100000000000,E05009384,Stamford Hill West,www.artcoreint.net,E09000012,12/27/2020
Hackney,Artists workspaces,,GROSVENOR WAY,,,E09000012,Hackney,51.56609206196425,-0.05139788887749953,535154.9632535686,187044.92198776797,10008336688,E05009380,Lea Bridge,cellprojects.org,E09000012,12/27/2020
Hackney,Artists workspaces,Murder Mile Studios,12 Grosvenor Way,,,E09000012,Hackney,51.566172332874714,-0.0518994902182378,535119.9632630469,187052.92198559118,100023007799,E05009380,Lea Bridge,www.artcoreint.net,E09000012,12/27/2020
Hackney,Arts centres,Chats Palace ,42-44 Brooksby's Walk,,,E09000012,Hackney,51.55026392640687,-0.042683326455879175,535805.9630754543,185300.92246146407,100023020798,E05009379,King's Park,https://chatspalace.com/,E09000012,12/27/2020
Hackney,Cinemas,Hackney Picturehouse,,270 Mare Street,,E09000012,Hackney,51.54485700786173,-0.05498696304590256,534968.9634266127,184676.9227538887,100023014120,E05009376,Homerton,,E09000012,12/27/2020
Hackney,Cinemas,Rio Cinema,,107 Kingsland High Street,,E09000012,Hackney,51.54963225639534,-0.07569805352971806,533518.9638189867,185169.9226187155,100023015558,E05009370,Dalston,,E09000012,12/27/2020
Hackney,Cinemas,The Castle Cinema,,"First Floor, 64-66 Brooksby's Walk",,E09000012,Hackney,51.551290424491484,-0.04330282813087886,535759.9632103133,185413.9225527143,100023544617,E05009379,King's Park,,E09000012,12/27/2020
Hackney,Cinemas,Balik Arts,,The Basement,86 Stoke Newington High Street,E09000012,Hackney,51.559153331700294,-0.07392602906353701,533613.963794268,186231.9223293136,010008332171,E05009385,Stoke Newington,,E09000012,12/27/2020
Hackney,Commercial galleries,Flowers Gallery East,82 Kingsland Road,NA,NA,E09000012,Hackney,51.529647625412295,-0.07714642146205056,533476.9638336031,182944.9232232186,10008242588,E05009375,Haggerston,http://www.flowersgallery.com/#,E09000012,12/27/2020
Hackney,Commercial galleries,Parasol unit,14 Wharf Road,NA,NA,E09000012,Hackney,51.530377120881006,-0.09500894875955652,532235.9141226999,182993.60320428433,10008244219,E05009378,Hoxton West,http://www.parasol-unit.org/#,E09000012,12/27/2020
Hackney,Commercial galleries,Five Years,"Unit 66, Regent Studios",8 Andrews Road,NA,E09000012,Hackney,51.53550144468921,-0.0602162308162057,534633.9635197859,183626.92303753243,10008244601,E05009381,London Fields,http://www.fiveyears.org.uk/#,E09000012,12/27/2020
Hackney,Commercial galleries,Rocket Gallery,56 Shoreditch High Street,NA,NA,E09000012,Hackney,51.52407369943361,-0.07668941521075474,533524.96381906,182325.9233922753,10008304903,E05009377,Hoxton East & Shoreditch,http://www.rocketgallery.com/#,E09000012,12/27/2020
Hackney,Commercial galleries,Hoxton Art Gallery,64 Charlotte Road,NA,NA,E09000012,Hackney,51.52630389934748,-0.08107894510577178,533213.9639028559,182565.92332639248,10008317965,E05009377,Hoxton East & Shoreditch,http://www.hoxtonartgallery.co.uk/#,E09000012,12/27/2020
Hackney,Commercial galleries,Galerie8,203 Richmond Road,NA,NA,E09000012,Hackney,51.54359430027846,-0.057088403970717544,534826.9834232866,184532.63275412424,10008325659,E05009372,Hackney Central,http://www.galerie8.co.uk/#,E09000012,12/27/2020
Hackney,Commercial galleries,The Proud Archivist,"The Archivist, Unit V Reliance Wharf",2-10 Hertford Road,NA,E09000012,Hackney,51.53726349291777,-0.0787071274342672,533346.4638692783,183788.98299117864,10008329599,E05009371,De Beauvoir,http://www.theproudarchivist.co.uk/#,E09000012,12/27/2020
Hackney,Commercial galleries,Charlie Smith,336 Old Street,NA,NA,E09000012,Hackney,51.52658861238737,-0.08144180134706988,533187.9639099931,182596.9233179539,10008336390,E05009377,Hoxton East & Shoreditch,http://charliesmithlondon.com/#,E09000012,12/27/2020
Hackney,Commercial galleries,Unit G Gallery,12A Collent Street,NA,NA,E09000012,Hackney,51.54404540250602,-0.04762697163147047,535481.683257832,184600.26274123893,10008339282,E05009376,Homerton,http://unitg.london/gallery/#,E09000012,12/27/2020
Hackney,Commercial galleries,BSMT Space,5d Stoke Newington Road,NA,NA,E09000012,Hackney,51.55077848634022,-0.07540450761671755,533535.9638142965,185297.92258389725,10008342181,E05009382,Shacklewell,http://www.bsmt.co.uk/#,E09000012,12/27/2020
Hackney,Commercial galleries,ICN,96-98 Leonard Street,NA,NA,E09000012,Hackney,51.52458740791301,-0.08169030897905488,533176.5638882297,182373.933327528,10091782215,E05009377,Hoxton East & Shoreditch,http://www.icn-global.com/#,E09000012,12/27/2020
Hackney,Commercial galleries,Blackhall Studios,73 Leonard Street,NA,NA,E09000012,Hackney,51.52485060560033,-0.08294209372746277,533088.9639360856,182400.92337134713,10091941036,E05009377,Hoxton East & Shoreditch,http://www.blackallstudios.com/#,E09000012,12/27/2020
Hackney,Commercial galleries,Galleries Goldstein,"Goodhood, 20 Coronet Street",NA,NA,E09000012,Hackney,51.52722306335659,-0.08229454533968196,533126.9639267521,182665.92329919006,100021034288,E05009377,Hoxton East & Shoreditch,http://galleriesgoldstein.com/#,E09000012,12/27/2020
Hackney,Commercial galleries,CNB Gallery,32 Rivington Street,NA,NA,E09000012,Hackney,51.525854318391616,-0.08163126634864742,533176.9639125257,182514.9233402257,100022932983,E05009377,Hoxton East & Shoreditch,http://cnbgallery.com/#,E09000012,12/27/2020
Hackney,Commercial galleries,Red Gallery,3 Rivington Street,NA,NA,E09000012,Hackney,51.52616876012772,-0.08326152828946834,533062.9639432849,182546.923331463,100022933139,E05009377,Hoxton East & Shoreditch,http://www.redgallerylondon.com/#,E09000012,12/27/2020
Hackney,Commercial galleries,Signal Gallery,32 Paul Street,NA,NA,E09000012,Hackney,51.523554831965846,-0.0839912273545069,533019.963955043,182254.92341141956,100022933332,E05009377,Hoxton East & Shoreditch,http://www.signalgallery.com/#,E09000012,12/27/2020
Hackney,Commercial galleries,The Residence,229 Victoria Park Road,NA,NA,E09000012,Hackney,51.53832806104461,-0.04414710194736252,535739.9632170296,183970.92294554942,100023024966,E05009386,Victoria,http://www.residence-gallery.com/#,E09000012,12/27/2020
Hackney,Commercial galleries,Mercer Chance,253 Hoxton Street,NA,NA,E09000012,Hackney,51.53387567849696,-0.08052964011012721,533229.9639025496,183408.92309718498,100023135423,E05009377,Hoxton East & Shoreditch,http://www.mercerchance.co.uk/#,E09000012,12/27/2020
Hackney,Commercial galleries,Daniel Blau,51 Hoxton Square,NA,NA,E09000012,Hackney,51.52717302567572,-0.08166043268260492,533171.0939197578,182661.51326619787,100023135514,E05009377,Hoxton East & Shoreditch,http://www.danielblau.com/#,E09000012,12/27/2020
Hackney,Commercial galleries,Waterside Contemporary,2 Clunbury Street,NA,NA,E09000012,Hackney,51.53202047014443,-0.08530812715433386,532903.9639902017,183193.9231561229,100023135532,E05009378,Hoxton West,http://waterside-contemporary.com/#,E09000012,12/27/2020
Hackney,Commercial galleries,Standpoint,45 Coronet Street,Hoxton,NA,E09000012,Hackney,51.52707149814657,-0.08182516199791308,533159.9639177918,182649.9233035444,100023136399,E05009377,Hoxton East & Shoreditch,http://www.standpointlondon.co.uk/#,E09000012,12/27/2020
Hackney,Commercial galleries,The Invisible Line,"87 Dalston Lane,",NA,NA,E09000012,Hackney,51.54785830376204,-0.06899396549480187,533988.9636905512,184984.9226685622,100023545364,E05009370,Dalston,http://www.whitechapelgallery.org/first-thursdays/galleries/invisible-line-gallery/,E09000012,12/27/2020
Hackney,Commercial galleries,Fishbar,176 Dalston Lane,NA,NA,E09000012,Hackney,51.54819851817224,-0.06508524411019835,534258.9636176879,185029.92265641992,100023545393,E05009372,Hackney Central,http://fishbar.ph/#,E09000012,12/27/2020
Hackney,Commercial galleries,Rowing,2 Leswin Place,NA,NA,E09000012,Hackney,51.55802901248215,-0.07227117762087233,533731.9637621397,186109.92236229073,100023546708,E05009385,Stoke Newington,http://www.rowingprojects.com/#,E09000012,12/27/2020
Hackney,Commercial galleries,Andor Gallery,237 Hackney Road,NA,NA,E09000012,Hackney,51.53132194068214,-0.07014066867582479,533957.9637037701,183143.92316838895,100023649875,E05009375,Haggerston,http://www.creativeandorcultural.com/#,E09000012,12/27/2020
Hackney,Commercial galleries,Victoria Miro Gallery I,16 Wharf Road,NA,NA,E09000012,Hackney,51.530328967001466,-0.09499524414576904,532237.0041492825,182988.2731886278,200002432213,E05009378,Hoxton West,http://www.victoria-miro.com/#,E09000012,12/27/2020
Hackney,Community centres,Wayman Court Community Centre,Eleanor Road (North),Hackney,NA,E09000012,Hackney,51.54387614471457,-0.059831319993582696,534635.9635162097,184558.9227856975,10008230586,E05009372,Hackney Central,,E09000012,12/27/2020
Hackney,Community centres,North & South Arden Community Centre,Arden Estate,Hackney,NA,E09000012,Hackney,51.53219636518825,-0.08176821831613408,533148.9639237189,183219.92314870656,10008240056,E05009377,Hoxton East & Shoreditch,,E09000012,12/27/2020
Hackney,Community centres,Trelawney Club House,Paragon Road,Hackney,NA,E09000012,Hackney,51.54532409594447,-0.052078938391952545,535169.2133727412,184734.2327359459,10008242984,E05009376,Homerton,,E09000012,12/27/2020
Hackney,Community centres,Hawksley Court  Community Centre,Hawksley Road,Hackney,NA,E09000012,Hackney,51.559227811826126,-0.08180447238777187,533067.6439353826,186225.83230506332,10008244157,E05009369,Clissold,,E09000012,12/27/2020
Hackney,Community centres,Rhodes Est Community Centre,Carlisle Walk,Hackney,NA,E09000012,Hackney,51.54541967857232,-0.07271717051137025,533737.9637593974,184706.92274441553,10008244242,E05009370,Dalston,,E09000012,12/27/2020
Hackney,Community centres,Cranston Estate Community Centre,Cranston Estate,Hackney,NA,E09000012,Hackney,51.53263974308009,-0.08633468277273226,532830.9640105104,183260.92313806474,10008300258,E05009378,Hoxton West,,E09000012,12/27/2020
Hackney,Community centres,Nightingale Partnership Residents Association,18 Olympus Square,Hackney,NA,E09000012,Hackney,51.5568588593961,-0.0612990478667407,534495.9635543549,185999.92239245988,10008305054,E05009373,Hackney Downs,,E09000012,12/27/2020
Hackney,Community centres,The Mount Community Centre,21 Mount Pleasant Lane,Hackney,NA,E09000012,Hackney,51.56366356999785,-0.05733068061483399,534750.9634847458,186763.92218568013,10008305126,E05009383,Springfield,,E09000012,12/27/2020
Hackney,Community centres,Arden Estate Community Centre,Regan Way,Hackney,NA,E09000012,Hackney,51.53255987001722,-0.08090223155087295,533207.9639078794,183261.9231371986,10008308464,E05009377,Hoxton East & Shoreditch,,E09000012,12/27/2020
Hackney,Community centres,Geffrye  Community Centre,Falkirk Street,Hackney,NA,E09000012,Hackney,51.5310719428652,-0.07955186764826,533305.9638805101,183098.92318140686,10008309530,E05009377,Hoxton East & Shoreditch,,E09000012,12/27/2020
Hackney,Community centres,Aspland & Marcon ,Amhurst Road,Hackney,NA,E09000012,Hackney,51.54859452955641,-0.05857783393662126,534708.9634966571,185085.92264145124,10008309531,E05009372,Hackney Central,,E09000012,12/27/2020
Hackney,Community centres,Ben Simons Community Centre,Bethune Road,Hackney,NA,E09000012,Hackney,51.572125916246165,-0.08301801485723266,532945.9639767936,187657.92194288113,10008309532,E05009387,Woodberry Down,,E09000012,12/27/2020
Hackney,Community centres,Wilton Est Community Centre,Greenwood Road,Hackney,NA,E09000012,Hackney,51.54482518922034,-0.0639302150503944,534348.9635934612,184656.92275843455,10008309537,E05009372,Hackney Central,,E09000012,12/27/2020
Hackney,Community centres,York Row ,Geffrye Street,Hackney,NA,E09000012,Hackney,51.53383360656468,-0.07632106102354563,533521.963822919,183411.92309576337,10008309538,E05009375,Haggerston,,E09000012,12/27/2020
Hackney,Community centres,Wenlock  Community Centre,9-13 Cropley Street,Hackney,NA,E09000012,Hackney,51.53138106442825,-0.08966041742830001,532603.964071615,183114.9231780095,10008310375,E05009378,Hoxton West,,E09000012,12/27/2020
Hackney,Community centres,Provost Community Centre,Provost Estate,Hackney,NA,E09000012,Hackney,51.530793948051745,-0.08894969249459307,532654.9640573543,183050.92319529993,10008318506,E05009378,Hoxton West,,E09000012,12/27/2020
Hackney,Community centres,The Beckers Community Centre,Rectory Road,Hackney,NA,E09000012,Hackney,51.55609872800194,-0.06784827632930453,534044.2136768128,185903.3723692253,10008318636,E05009373,Hackney Downs,,E09000012,12/27/2020
Hackney,Community centres,Joseph Court,Amhurst Park,Hackney,NA,E09000012,Hackney,51.57501200562305,-0.07860876321122875,533243.0838916752,187986.8918246217,10008318638,E05009387,Woodberry Down,,E09000012,12/27/2020
Hackney,Community centres,Pitcairn House ,St Thomass Square,Hackney,NA,E09000012,Hackney,51.542684504995314,-0.054127690133482446,535034.9634087795,184436.92281987262,10008318640,E05009376,Homerton,,E09000012,12/27/2020
Hackney,Community centres,Lordship North Community Centre,Lordship Road,Hackney,NA,E09000012,Hackney,51.56874260376153,-0.08736977263782753,532654.2340135076,187273.78203230113,10008323652,E05009384,Stamford Hill West,,E09000012,12/27/2020
Hackney,Community centres,Peter Collins Community Centre,Hindhead Close,Hackney,NA,E09000012,Hackney,51.56870194530389,-0.07656755274167458,533402.9638503895,187288.92204299784,10008331943,E05009384,Stamford Hill West,,E09000012,12/27/2020
Hackney,Community centres,Elsdale OAP Club,Elsdale Street,Hackney,NA,E09000012,Hackney,51.543259775058644,-0.050591855996842634,535278.4333136029,184507.42280086153,10008341872,E05009376,Homerton,,E09000012,12/27/2020
Hackney,Community centres,The Bell Club,140 Pitfield Street,Hackney,NA,E09000012,Hackney,51.53090556593249,-0.08264174391913583,533092.1439310774,183074.79318328918,10008344396,E05009377,Hoxton East & Shoreditch,,E09000012,12/27/2020
Hackney,Community centres,Fellows Court,Weymouth Terrace,Hackney,NA,E09000012,Hackney,51.53360530536361,-0.07282688953715397,533764.9637565988,183392.92310047196,100022992362,E05009375,Haggerston,,E09000012,12/27/2020
Hackney,Community centres,Jack Watts Community Centre,10 Detmold Road,Hackney,NA,E09000012,Hackney,51.56348374692349,-0.052995409747049894,535051.9634033123,186751.92218929774,100023006552,E05009380,Lea Bridge,,E09000012,12/27/2020
Hackney,Community centres,Radley & Southwold Community Centre,45 Southwold Road,Hackney,NA,E09000012,Hackney,51.563206901605966,-0.049861793481587084,535269.9633441964,186726.9221960855,100023006567,E05009380,Lea Bridge,,E09000012,12/27/2020
Hackney,Community centres,Kier Hardie Community Centre,Springfield,Hackney,NA,E09000012,Hackney,51.56788462863971,-0.06080164952757813,534497.9635529264,187226.92205997877,100023007656,E05009383,Springfield,,E09000012,12/27/2020
Hackney,Community centres,Warburton & Darcy Community Centre,Warburton Street,Hackney,NA,E09000012,Hackney,51.53872709861703,-0.05896870495735064,534710.9634975065,183987.92294044944,100023016210,E05009381,London Fields,,E09000012,12/27/2020
Hackney,Community centres,Colville Community Centre,35 Branch Place,Hackney,NA,E09000012,Hackney,51.537116070322554,-0.08401268458312608,532978.9639698273,183762.92300113686,100023135173,E05009377,Hoxton East & Shoreditch,,E09000012,12/27/2020
Hackney,Community centres,Defoe Small Blocks,Defoe Road,Hackney,NA,E09000012,Hackney,51.56112804939988,-0.07918077311221397,533243.9638944204,186441.92227294092,100023155049,E05009385,Stoke Newington,,E09000012,12/27/2020
Hackney,Community centres,Mountford Estate ,Downs Park Road,Hackney,NA,E09000012,Hackney,51.55097486922465,-0.0682130222383247,534033.9636783121,185332.9225736038,100023545479,E05009372,Hackney Central,,E09000012,12/27/2020
Hackney,Community centres,Shrubland Community Centre,Shrubland Road,Hackney,NA,E09000012,Hackney,51.53856339285664,-0.06647430280126025,534190.9636379922,183955.9229481446,200001073573,E05009375,Haggerston,,E09000012,12/27/2020
Hackney,Community centres,Burma Court Community Centre,Burma Road,Hackney,NA,E09000012,Hackney,51.55558883604145,-0.08933768737201395,532556.0340893492,185807.48244309454,200002797978,E05009369,Clissold,,E09000012,12/27/2020
Hackney,Community centres,Morland Hall,Richmond Road,Hackney,NA,E09000012,Hackney,51.543142060980685,-0.06329492470584545,534397.9635802638,184470.92280935135,10008240743,E05009381,London Fields,,E09000012,12/27/2020
Hackney,Community centres,Kingsgate Community Hall,Tottenham Road,Hackney,NA,E09000012,Hackney,51.54498798042527,-0.07851501252820936,533337.2238179492,184648.322723796,10008241541,E05009371,De Beauvoir,,E09000012,12/27/2020
Hackney,Community centres,Yorkshire Grove Hall,20 Gunstor Road,Hackney,NA,E09000012,Hackney,51.556754733216756,-0.07845601767288783,533306.9638775028,185956.92240474618,10008242273,E05009385,Stoke Newington,,E09000012,12/27/2020
Hackney,Community centres,Banister House,Homerton High Street,Hackney,NA,E09000012,Hackney,51.54840706653173,-0.044580400227332444,535679.963232419,185090.9226409762,10008242329,E05009376,Homerton,,E09000012,12/27/2020
Hackney,Community centres,Jack Dunning Hall,6 Furrow Lane,Hackney,NA,E09000012,Hackney,51.54898715293801,-0.047886624340921814,535449.023293474,185149.3125782992,10008242350,E05009376,Homerton,,E09000012,12/27/2020
Hackney,Community centres,Nye Bevan Hall,Nye Bevan Estate,Hackney,NA,E09000012,Hackney,51.55665528634526,-0.041506697794323325,535868.5131693615,186013.83236261492,10008243115,E05009379,King's Park,,E09000012,12/27/2020
Hackney,Community centres,Lea View Hall,Springfield,Hackney,NA,E09000012,Hackney,51.568007246628525,-0.058429959020276215,534661.963508817,187244.92205518828,10008243441,E05009383,Springfield,,E09000012,12/27/2020
Hackney,Community centres,Wrens Park Hall,Warwick Grove,Hackney,NA,E09000012,Hackney,51.565876784682516,-0.05576467413158051,534852.9634571277,187012.92211829248,10008243806,E05009383,Springfield,,E09000012,12/27/2020
Hackney,Community centres,Kings Crescent Community Hall (Vince Murrain),Queens Drive,Hackney,NA,E09000012,Hackney,51.56215575123288,-0.09333267373618684,532260.0741484835,186530.50220459315,10008244239,E05009367,Brownswood,https://www.hackney.gov.uk/community-hall-hire,E09000012,12/27/2020
Hackney,Community centres,Regents Hall,60 Brougham Road,Hackney,NA,E09000012,Hackney,51.53740408130823,-0.06325007806666914,534417.9635772872,183832.92298168148,10008293959,E05009381,London Fields,,E09000012,12/27/2020
Hackney,Community centres,Whiston and Goldsmiths Hall,Goldsmiths Row,Hackney,NA,E09000012,Hackney,51.53370884299094,-0.0632915816908432,534425.9635769367,183421.92309247784,10008309536,E05009375,Haggerston,,E09000012,12/27/2020
Hackney,Community centres,New Kingshold Community Centre,49 Ainsworth Road,Hackney,NA,E09000012,Hackney,51.53891241658471,-0.049846731768469446,535342.983284676,184025.36293360055,10008311816,E05009386,Victoria,,E09000012,12/27/2020
Hackney,Community centres,Vi Forrester Hall,5 Gilpin Road,Hackney,NA,E09000012,Hackney,51.55499191829358,-0.03957764453275375,536007.1831140694,185832.44239743514,10008318505,E05009379,King's Park,https://hackney.gov.uk/article/3879/Community-hall-hire,E09000012,12/27/2020
Hackney,Community centres,Fawcett Estate Hall,Clapton Common,Hackney,NA,E09000012,Hackney,51.56893843494712,-0.06120692378705866,534466.7735591731,187343.362030786,10008318639,E05009383,Springfield,,E09000012,12/27/2020
Hackney,Community centres,Herbert Butler Hall,Mabley Street,Hackney,NA,E09000012,Hackney,51.54932481323431,-0.03662219714883421,536228.9630811263,185207.7426168954,10008318641,E05009374,Hackney Wick,,E09000012,12/27/2020
Hackney,Community centres,Haggerston Community Centre,8 Lovelace Street,Hackney,NA,E09000012,Hackney,51.537467743618045,-0.07316999861034737,533729.8537179295,183821.8129380056,10008330088,E05009375,Haggerston,https://www.haggerstoncc.com/,E09000012,12/27/2020
Hackney,Community centres,Gascoyne Community Centre,Gascoyne Road,Hackney,NA,E09000012,Hackney,51.541699988976795,-0.03865575188798748,536110.7131147971,184356.0728055943,10008342233,E05009374,Hackney Wick,http://www.hmp.org.uk/copy-of-services,E09000012,12/27/2020
Hackney,Community centres,Nisbet Hall,Homerton High Street,Hackney,NA,E09000012,Hackney,51.54737337189461,-0.040831328191679055,535942.9631601461,184982.92267082928,10008310386,E05009376,Homerton,,E09000012,12/27/2020
Hackney,Community centres,Webb Estate Community Centre,Clapton Common,Hackney,NA,E09000012,Hackney,51.57057230583341,-0.06290969187492046,534343.963595276,187521.9219799984,100023648572,E05009383,Springfield,,E09000012,12/27/2020
Hackney,Community centres,Whitmore Community Centre,2 Phillipp Street,Hackney,NA,E09000012,Hackney,51.53584039870069,-0.07750535642774772,533433.963846007,183632.92303595092,100023135258,E05009377,Hoxton East & Shoreditch,https://www.metropolitan.org.uk/,E09000012,12/27/2020
Hackney,Community centres,Nelson Mandela,Cazenove Road,Hackney,NA,E09000012,Hackney,51.56419955190165,-0.07108302383761071,533796.2437114447,186798.27215127315,10008241565,E05009368,Cazenove,n16boilerhouse.com,E09000012,12/27/2020
Hackney,Community centres,13 Cester Street,13 Cester Street,Hackney,NA,E09000012,Hackney,51.535532992281425,-0.06756883865680655,534123.963657828,183616.92303938488,10008229900,E05009375,Haggerston,https://www.hanover.org.uk/find-a-home/property-search/cester-street-hackney/,E09000012,12/27/2020
Hackney,Community centres,Robert Owen Lodge,172 Clarence Road,Hackney,NA,E09000012,Hackney,51.55498813958809,-0.05585349562327962,534878.9634505683,185801.92244669818,100023545020,E05009373,Hackney Downs,,E09000012,12/27/2020
Hackney,Community centres,Ann Tayler Children Centre,1-13 Triangle Road,Hackney,NA,E09000012,Hackney,51.538155798831866,-0.05922373595674986,534694.9635020825,183923.92295765522,10008237754,E05009381,London Fields,https://www.learningtrust.co.uk/school/ann-tayler-childrens-centre,E09000012,12/27/2020
Hackney,Community centres,Wally Foster Community Centre Association,Homerton Road,Hackney,NA,E09000012,Hackney,51.55027850604214,-0.034403048352675034,536379.9630396136,185317.92257952224,10008241129,E05009379,King's Park,http://wallyfostercc.org.uk/,E09000012,12/27/2020
Hackney,Community centres,Morland Hall,Richmond Road,Hackney,NA,E09000012,Hackney,51.543142060980685,-0.06329492470584545,534397.9635802638,184470.92280935135,10008242426,E05009381,London Fields,,E09000012,12/27/2020
Hackney,Community centres,Kingsmead Community Centre,9 Kingsmead Way,Hackney,NA,E09000012,Hackney,51.55167106676626,-0.03486231582690454,536343.9630498218,185471.922537532,10008242601,E05009379,King's Park,,E09000012,12/27/2020
Hackney,Community centres,Navarino Mansions,Dalston Lane,Hackney,NA,E09000012,Hackney,51.548009872445725,-0.06346339519872272,534371.9635872918,185011.92266143207,10008310099,E05009372,Hackney Central,https://www.ids.org.uk/,E09000012,12/27/2020
Hackney,Community centres,Redmond Community Centre,Kayani Avenue,Hackney,NA,E09000012,Hackney,51.57008746898808,-0.0913483088444412,532374.6140948285,187416.12195910478,10008326177,E05009387,Woodberry Down,,E09000012,12/27/2020
Hackney,Community centres,Morningside Hall,Cresset Road,Hackney,NA,E09000012,Hackney,51.544709445773044,-0.048423677530377573,535424.4732515181,184672.63271643769,10008336728,E05009376,Homerton,http://www.hmp.org.uk/copy-of-concorde,E09000012,12/27/2020
Hackney,Community centres,Northwold Community Hall,Upper Clapton Road,Hackney,NA,E09000012,Hackney,51.564820275440965,-0.061567487322828476,534453.9135160131,186884.7521086136,10008343000,E05009368,Cazenove,,E09000012,12/27/2020
Hackney,Community centres,Wayside Community Centre,69 Lower Clapton Road,Hackney,NA,E09000012,Hackney,51.551324223859716,-0.05182645764067612,535168.9633728433,185401.92255532678,100021056203,E05009376,Homerton,,E09000012,12/27/2020
Hackney,Community centres,Shoreditch Town Hall,380 Old Street,Hackney,NA,E09000012,Hackney,51.52667618618365,-0.07910261089960448,533349.9638665419,182610.923314223,100022930896,E05009377,Hoxton East & Shoreditch,https://shoreditchtownhall.com/,E09000012,12/27/2020
Hackney,Community centres,Queensbridge Sports and Community Centre,30 Holly Street,Hackney,NA,E09000012,Hackney,51.54236422319854,-0.07120212255335082,533851.9637283207,184369.92283616005,100023015753,E05009381,London Fields,https://www.better.org.uk/leisure-centre/london/hackney/queensbridge-sport-and-community-centre?utm_source=google&utm_medium=organic&utm_campaign=google_my_business,E09000012,12/27/2020
Hackney,Community centres,Wally Foster Community Centre Association,Homerton Road,Hackney,NA,E09000012,Hackney,51.55027850604214,-0.034403048352675034,536379.9630396136,185317.92257952224,100023020750,E05009379,King's Park,http://wallyfostercc.org.uk/,E09000012,12/27/2020
Hackney,Community centres,Pembury Community Centre,1 Atkins Square,Hackney,NA,E09000012,Hackney,51.549824817974304,-0.05890384316292021,534682.7334622325,185222.13256501273,10008336791,E05009372,Hackney Central,https://www.peabody.org.uk/neighbourhoods/community-centres/pembury-venue-hire,E09000012,12/27/2020
Hackney,Community centres,Victoria Park Community Centre,Egerton Road,Hackney,NA,E09000012,Hackney,51.573521563188855,-0.06834054453914296,533958.9636999003,187839.9218942796,100023158852,E05009383,Springfield,https://victoria-park-community-centre-peabody.business.site/,E09000012,12/27/2020
Hackney,Community centres,Amhurst Road Community Centre,Charterhouse Road,Hackney,NA,E09000012,Hackney,51.5529888635095,-0.06804902291355673,534039.4236382421,185557.18246117065,10008324069,E05009382,Shacklewell,https://www.shgroup.org.uk/media/425372/amhurst-road.pdf,E09000012,12/27/2020
Hackney,Community centres,Hindle House Community Centre,Arcola Street,Hackney,NA,E09000012,Hackney,51.55268185767491,-0.07248259676976994,533732.9637608374,185514.92252445692,10008241397,E05009382,Shacklewell,https://www.shgroup.org.uk/media/233104/hindle-house.pdf,E09000012,12/27/2020
Hackney,Community centres,Stamford Hill Estate Community Centre,110 Stamford Hill,Hackney,NA,E09000012,Hackney,51.5693017246214,-0.07147737445442068,533753.9637546295,187364.92202244786,100023157700,E05009368,Cazenove,https://www.shgroup.org.uk/media/233110/stamford-hill.pdf,E09000012,12/27/2020
Hackney,Community centres,Webb Estate Community Hall,Clapton Common,Hackney,NA,E09000012,Hackney,51.570070573958766,-0.061873829755906246,534417.2235240825,187468.03197988647,10008241655,E05009383,Springfield,,E09000012,12/27/2020
Hackney,Community centres,Mesifta Talmudical College,90-92 Cazenove Road,Hackney,NA,E09000012,Hackney,51.56530246550764,-0.0672601160522555,534057.9636717065,186927.92214053153,10008299940,E05009368,Cazenove,,E09000012,12/27/2020
Hackney,Community centres,Abney Public Hall,Stoke Newington Church Street,Hackney,NA,E09000012,Hackney,51.56173250982857,-0.07765487001336106,533347.9638659991,186511.92225378787,10008300895,E05009385,Stoke Newington,www.abneypublichall.com,E09000012,12/27/2020
Hackney,Community centres,Oak Tree Community Centre,77 Bethune Road,Hackney,NA,E09000012,Hackney,51.57079574609393,-0.08141443370809043,533060.963944761,187512.92198226275,100023157675,E05009387,Woodberry Down,https://www.theoaktreecentre.co.uk/,E09000012,12/27/2020
Hackney,Community centres,Alf Partridge Community Hall,Prout Road,Hackney,NA,E09000012,Hackney,51.559499787767685,-0.05460810274225596,534951.9634303006,186305.9223101309,100023547501,E05009380,Lea Bridge,https://bcctra.weebly.com/,E09000012,12/27/2020
Hackney,Community centres,Milton Gardens Community Hall,71-75 Shakspeare Walk,Hackney,NA,E09000012,Hackney,51.5547984759489,-0.08145229210614599,533104.9639323126,185733.92246582918,100023547832,E05009369,Clissold,,E09000012,12/27/2020
Hackney,Community centres,The Redmond Community Centre,440 Seven Sisters Road,Hackney,NA,E09000012,Hackney,51.57228879646033,-0.09024097604999091,532444.9641126795,187662.92194085987,100023548888,E05009387,Woodberry Down,https://www.redmondcommunitycentre.com/,E09000012,12/27/2020
Hackney,Community centres,Vaine House,Cassland Road, Gascoyne Estate, Hackney,E09000012,Hackney,51.54436741221474,-0.03907108187480148,536073.9631245439,184651.9227615419,10008310347,E05009374,Hackney Wick,,E09000012,12/27/2020
Hackney,Community centres,Tower Gardens,2 Inglethorp House, ,NA,E09000012,Hackney,51.56372661351017,-0.06331578086555059,534335.9635969928,186759.92218627135,100023006275,E05009368,Cazenove,,E09000012,12/27/2020
Hackney,Community centres,St Mary Community Centre,Kent Street, Hackney, London,E09000012,Hackney,51.533303898970324,-0.07035958561447705,533936.9637096801,183363.92310809,10008243952,E05009375,Haggerston,,E09000012,12/27/2020
Hackney,Community centres,Smalley Road Community Centre,20 Cleveland Close,NA,NA,E09000012,Hackney,51.56117164620176,-0.07197971257667093,533742.9637586471,186459.92226733704,10008229195,E05009385,Stoke Newington,,E09000012,12/27/2020
Hackney,Community centres,Sherry's Wharf,5 Oswalds mead, ,NA,E09000012,Hackney,51.554615225833096,-0.0339997510977743,536394.963037537,185800.92244762543,200001742182,E05009379,King's Park,,E09000012,12/27/2020
Hackney,Community centres,Napier Grove ,1 Napier Grove, ,NA,E09000012,Hackney,51.532223032127995,-0.09276836519154076,532385.964131506,183202.92315442674,100023136698,E05009378,Hoxton West,,E09000012,12/27/2020
Hackney,Community centres,Beecholme,Prout Rd,NA,NA,E09000012,Hackney,51.559817657447546,-0.05479653200524634,534937.9634341107,186340.92230061605,100021066903,E05009380,Lea Bridge,,E09000012,12/27/2020
Hackney,Community centres,Azalea Court ,Finsbury Park Place, Queens Drive, Hackney,E09000012,Hackney,51.56606753430371,-0.10114687095723934,531707.1742750643,186951.3921048768,10008348541,E05009367,Brownswood,,E09000012,12/27/2020
Hackney,Community centres,Amwell Court Estate ,Portland Rise, London ,NA,E09000012,Hackney,51.56651495375514,-0.09296449921854642,532272.9641590754,187015.92211696273,10008286958,E05009387,Woodberry Down,,E09000012,12/27/2020
Hackney,Community centres,Victoria Park Community Centre,Peabody,5 Gore Road,London,E09000012,Hackney,51.536437325044204,-0.051582239355712614,535229.963358132,183746.92300621734,100023022724,E05009386,Victoria,https://victoria-park-community-centre-peabody.business.site/,E09000012,12/27/2020
Hackney,Creative co-working desk space,Areaworks,Areaworks Hoxton,Unit 2 Sheldon Building,1 Baltic Place,E09000012,Hackney,51.53694973136985,-0.07715578006272529,533454.9638397538,183756.9230022701,10008238725,E05009375,Haggerston,http://areaworks.com/,E09000012,12/27/2020
Hackney,Creative co-working desk space,Canal,Canal Studios,Reliance Wharf,Hertford Road,E09000012,Hackney,51.53726349291777,-0.0787071274342672,533346.4638692783,183788.98299117864,10008239524,E05009371,De Beauvoir,http://canal-studios.co.uk/,E09000012,12/27/2020
Hackney,Creative co-working desk space,Soho Works,Soho Works,Unit 4.07 The Tea Building,56 Shoreditch High Street,E09000012,Hackney,51.52407369943361,-0.07668941521075474,533524.96381906,182325.9233922753,10008297236,E05009377,Hoxton East & Shoreditch,http://sohoworks.com/shoreditch/,E09000012,12/27/2020
Hackney,Creative co-working desk space,The Green House,The Green House N16,Greenhouse,Makintosh Lane,E09000012,Hackney,51.54734988288539,-0.04255594198873249,535823.4631930207,184977.11267471,10008301285,E05009376,Homerton,http://www.thegreenhouselondon.com/coworking/,E09000012,12/27/2020
Hackney,Creative co-working desk space,One House Studios,One House Studios,25 Hackney Road,,E09000012,Hackney,51.52776285424177,-0.0768222023493286,533504.963825331,182735.92328020697,100022990257,E05009377,Hoxton East & Shoreditch,www.onehousestudios.com,E09000012,12/27/2020
Hackney,Creative co-working desk space,Millers Junction,Millers Junction,Unit 1,10-28 Millers Avenue,E09000012,Hackney,51.55244301657588,-0.07446250124914593,533596.4038004521,185484.74254019215,100023014979,E05009382,Shacklewell,www.millersjunction.com/,E09000012,12/27/2020
Hackney,Creative co-working desk space,Bootstrap Company,Bootstrap Company,18 Ashwin Street,,E09000012,Hackney,51.5470138662953,-0.07396233657485926,533646.9637842022,184881.9226968583,10008241414,E05009370,Dalston,www.bootstrapcompany.co.uk,E09000012,12/27/2020
Hackney,Creative co-working desk space,Second Home,Second Home London Fields,125-129 Mare Street,,E09000012,Hackney,51.538199519928554,-0.05752027553894487,534812.9634701901,183931.9229557074,100023016159,E05009381,London Fields,http://secondhome.io/,E09000012,12/27/2020
Hackney,Creative co-working desk space,Creative Blocks,Creative Blocks,"258 Kingsland Road, London,",,E09000012,Hackney,51.53731319291111,-0.0762896739666141,533513.9638234503,183798.92299081694,100023016582,E05009375,Haggerston,www.creativeblocks.co.uk/,E09000012,12/27/2020
Hackney,Creative co-working desk space,Beehive,Beehive Co-Working,3-9 Belfast Road,,E09000012,Hackney,51.56588574015722,-0.07209793202131866,533720.9637632933,186983.92212547734,100023157720,E05009368,Cazenove,https://www.beehivecoworking.com/,E09000012,12/27/2020
Hackney,Creative co-working desk space,Blightly Arts,Blightly Arts Workspace,35-37 Blackstock Road,,E09000012,Hackney,51.563960169035774,-0.10288241682716028,531592.9643454899,186713.92219850008,100023186991,E05009367,Brownswood,https://blightyarts.org.uk/what-we-do/,E09000012,12/27/2020
Hackney,Creative co-working desk space,Clear Village Charitable Trust,Small Works Hackney,44 Marlborough Avenue,,E09000012,Hackney,51.53729733432546,-0.06713360344658974,534148.9636500529,183813.92298633826,100023547079,E05009375,Haggerston,http://www.clear-village.org/projects/smallworks/hackney,E09000012,12/27/2020
Hackney,Creative co-working desk space,Studio Shoreditch,Shoreditch Studio,"77 East Road,",,E09000012,Hackney,51.529108412244895,-0.08760740553502605,532752.9640295429,182865.92324532417,200002796664,E05009378,Hoxton West,www.studioshoreditch.co.uk,E09000012,12/27/2020
Hackney,Creative workspaces,Cell Project Space,Cell Project Arcola North,23-27 Arcola Street,,E09000012,Hackney,51.552092354349206,-0.0738201163689958,533641.9637855628,185446.92254313128,10008286566,,,cellprojects.org,E09000012,12/27/2020
Hackney,Creative workspaces,Container Ville,Container Ville,Ground Floor Rear Of 32-38,Scrutton Street,E09000012,Hackney,51.52283532834188,-0.08178704364632018,533174.9639134639,182178.9234323976,10008313306,,,https://www.containerville.co.uk/,E09000012,12/27/2020
Hackney,Creative workspaces,Lighthouse Studios,,73-75 & 89a Shacklewell Lane,,E09000012,Hackney,51.55274138434927,-0.07118186357521336,533822.9637362974,185523.92252185836,10008329070,,,www.lighthousespace.co.uk,E09000012,12/27/2020
Hackney,Creative workspaces,Hatch Homerton,Hatch,Unit G2,8 Mackintosh Lane,E09000012,Hackney,51.54734988288539,-0.04255594198873249,535823.4631930207,184977.11267471,10008334420,,,http://hatch-homerton.co.uk/,E09000012,12/27/2020
Hackney,Creative workspaces,The Mill Co. Project,Mandarin Wharf,70-76 De Beauvoir Crescent,,E09000012,Hackney,51.53706837944332,-0.07947066521630894,533294.0838787812,183765.89297070092,10008336737,,,www.themillcoproject.co.uk,E09000012,12/27/2020
Hackney,Creative workspaces,Artistic Spaces Ltd,Warwick Works,"Unit 1, Warwick Works",Downs Road,E09000012,Hackney,51.555293069312576,-0.06681141933347623,534118.4536467092,185815.68239080388,10008347879,,,www.artistic-spaces.co.uk,E09000012,12/27/2020
Hackney,Creative workspaces,De Beauvoir Block,De Beauvoir Block,92-96 De Beauvoir Road,,E09000012,Hackney,51.54190566044306,-0.08008637367289421,533237.263884967,184302.69281257456,10008348446,,,http://www.debeauvoirblock.com/#home,E09000012,12/27/2020
Hackney,Creative workspaces,Centre For Fashion Enterprise,Centre For Fashion Enterprise,182 Mare Street,,E09000012,Hackney,51.541123151532645,-0.0548720704600424,534987.9634218118,184261.92286718742,10091775928,,,www.fashion-enterprise.com,E09000012,12/27/2020
Hackney,Creative workspaces,Cell Project Space,Cell Project Arcola,4-8 Arcola Street,,E09000012,Hackney,51.55191501272772,-0.07451997115608078,533593.9637986345,185425.92254892853,100023015441,,,cellprojects.org,E09000012,12/27/2020
Hackney,Creative workspaces,Eat Work Art,Netil House,Netil House,1 Westgate Street,E09000012,Hackney,51.53756412535845,-0.057705949001257785,534801.9634734297,183860.92297480482,100023015639,,,eatworkart.com,E09000012,12/27/2020
Hackney,Creative workspaces,Bootstrap Company,Bootstrap Company,18 Ashwin St,,E09000012,Hackney,51.54696352046648,-0.07472887640806314,533593.9637987157,184874.92269879428,100023015654,,,http://www.bootstrapcompany.co.uk/,E09000012,12/27/2020
Hackney,Creative workspaces,Main Yard Studios,Main Yard Studios,90 Wallis Road,Hackney Wick,E09000012,Hackney,51.544390168267675,-0.022729634437847923,537206.9628185332,184684.92275046773,100023018517,,,https://mainyardstudios.co.uk/hackney-wick/,E09000012,12/27/2020
Hackney,Creative workspaces,Grow Studios,Grow Studios,Main Yard,Wallis Road,E09000012,Hackney,51.544390168267675,-0.022729634437847923,537206.9628185332,184684.92275046773,100023018517,,,https://www.growhackneystudios.com/home/,E09000012,12/27/2020
Hackney,Creative workspaces,The Mill Co. Project,The Rose Lipman Building,43 De Beauvoir Road,,E09000012,Hackney,51.538965221183425,-0.08161328335658524,533139.9639250634,183972.92294379772,100023135176,,,www.themillcoproject.co.uk,E09000012,12/27/2020
Hackney,Creative workspaces,Hoxton Hall Charity,Hoxton Works,130 Hoxton Street,,E09000012,Hackney,51.531771454139935,-0.0799837980610702,533273.963889536,183175.92316049145,100023135707,,,www.hoxtonhall.co.uk,E09000012,12/27/2020
Hackney,Creative workspaces,Westland Place Studio,Westland Place Studio,3-11 Westland Place,,E09000012,Tower Hamlets,51.52840997496627,-0.0905489642854093,532550.9640844505,182782.92326826096,100023136588,,,http://www.westlandplacestudios.com/,E09000012,12/27/2020
Hackney,Creative workspaces,Chocolate Factory 16,Chocolate Factory 16,The Chocolate Factory N16,Farley Place,E09000012,Hackney,51.555540297111506,-0.07350149212421299,533653.9637828926,185830.92243846675,100023159237,,,,E09000012,12/27/2020
Hackney,Creative workspaces,Eat Work Art,Hackney Downs Studios,Hackney Downs Studios,Amhurst Terrace,E09000012,Hackney,51.554342500682125,-0.06629615985310154,534156.9636458945,185710.9224706905,100023544264,,,eatworkart.com,E09000012,12/27/2020
Hackney,Creative workspaces,Set,Set Dalston Lane,27a Dalston Lane,,E09000012,Hackney,51.54641102416773,-0.07284838047918346,533725.9637626165,184816.92271449202,100023545315,,,http://setspace.uk/studio.html,E09000012,12/27/2020
Hackney,Creative workspaces,Shepherd's Lane Studios,Shepherd's Lane,5-7 Shephed's Lane,,E09000012,Hackney,51.5476921806937,-0.04625734786099814,535565.8232491727,185008.32262691023,100023547846,,,http://www.shepherdslaneworkshop.com,E09000012,12/27/2020
Hackney,Creative workspaces,Future Studio,Future Studio,237 Hackney Road,,E09000012,Hackney,51.53132194068214,-0.07014066867582479,533957.9637037701,183143.92316838895,100023649875,,,http://futurestudio.org.uk,E09000012,12/27/2020
Hackney,Dance performance venues,Hackney Empire,291 Mare Street,,,E09000012,Hackney,51.54552161556345,-0.05547786117844201,534932.9633142198,184749.92261170613,100023014084,E05009372,Hackney Central,https://hackneyempire.co.uk/hire/spaces/,E09000012,12/27/2020
Hackney,Dance performance venues,Hoxton Hall,130 Hoxton Street,,,E09000012,Hackney,51.53177145307153,-0.07998379986653217,533273.9637674359,183175.92303839116,100023135707,E05009377,Hoxton East & Shoreditch,www.hoxtonhall.co.uk/category/hire/,E09000012,12/27/2020
Hackney,Dance performance venues,Arcola,24 Ashwin Street,,,E09000012,Hackney,51.54691315471493,-0.0749473466957685,533578.963680727,184868.92257833335,10008321023,E05009370,Dalston,http://www.arcolatheatre.com,E09000012,12/27/2020
Hackney,Dance performance venues,Studio Wayne McGregor,14 East Bay lane,,,E09000012,Hackney,51.54744384582722,-0.02406695893096881,537105.0627235065,185021.9925364061,10008348301,E05009374,Hackney Wick,http://waynemcgregor.com,E09000012,12/27/2020
Hackney,Dance performance venues,"The Old Church , Stoke Newington",207B Church Street,,,E09000012,Hackney,51.560412014527095,-0.08488074761027248,532850.9638793237,186351.92217591003,100021076029,E05009369,Clissold,http://theoldchurch.org.uk,E09000012,12/27/2020
Hackney,Dance performance venues,Foulden Works,30 Foulden Road,,,E09000012,Hackney,51.55551305271173,-0.07239187829974293,533730.9636398229,185829.92231650808,100023159914,E05009385,Stoke Newington,https://fouldenworks.wordpress.com,E09000012,12/27/2020
Hackney,Dance performance venues,Shoreditch Town Hall,380 Old Street,,,E09000012,Hackney,51.52667618511525,-0.07910261270487973,533349.9637444413,182610.92319212278,100022930896,E05009377,Hoxton East & Shoreditch,http://shoreditchtownhall.com/event-space-hire/venue-specification/large-committee-room,E09000012,12/27/2020
Hackney,Dance performance venues,Graeae Theatre Company Bradbury Studios,138 Kinglsand Road,,,E09000012,Hackney,51.53279852462418,-0.07681170573831783,533490.9637088948,183295.9230053721,10008323888,E05009375,Haggerston,www.graeae.org/,E09000012,12/27/2020
Hackney,Dance performance venues,National Circus,9 Coronet St,,,E09000012,Hackney,51.52755808546938,-0.08255020363839739,533108.2538098877,182702.7131670977,100023135619,E05009377,Hoxton East & Shoreditch,http://www.nationalcircus.org.uk,E09000012,12/27/2020
Hackney,Dance performance venues,Chat's Palace,42 Brooksby's Walk,,,E09000012,Hackney,51.55026392640687,-0.042683326455879175,535805.9630754543,185300.92246146407,100023020798,E05009379,King's Park,http://chatspalace.com,E09000012,12/27/2020
Hackney,Dance performance venues,TripSpace Dance,339-340 Acton Mews,,,E09000012,Hackney,51.53679363512386,-0.07586457097290396,533544.9636931249,183741.92288413766,100023016667,E05009375,Haggerston,http://www.tripspace.co.uk,E09000012,12/27/2020
Hackney,Dance performance venues,Courtyard Theatre,40 Pitfield Street,,,E09000012,Hackney,51.52787925254408,-0.08337707468309591,533049.963825777,182736.9231578111,100023136422,E05009377,Hoxton East & Shoreditch,http://www.thecourtyard.org.uk,E09000012,12/27/2020
Hackney,Dance rehearsal studios,Clarence Mews : Studio Space,40 Clarence Mews,,,E09000012,Hackney,51.55118481209124,-0.054803845216755395,534962.9633062173,185380.92243883217,200001493439,E05009376,Homerton,https://clarencemews.wordpress.com/about/,E09000012,12/27/2020
Hackney,Dance rehearsal studios,Concorde Centre,7 Kingsmead Way,,,E09000012,Hackney,51.55343145857387,-0.03419503485871698,536384.9629175682,185668.9223615612,100023546618,E05009379,King's Park,https://www.younghackney.org/youth-hub/concorde/,E09000012,12/27/2020
Hackney,Dance rehearsal studios,Dance Research Studio,23 Orsman Road,,,E09000012,Hackney,51.53614876850161,-0.07876129506914484,533345.963747808,183664.92290528468,10008237591,E05009377,Hoxton East & Shoreditch,http://www.danceresearchstudio.com,E09000012,12/27/2020
Hackney,Dance rehearsal studios,Hackney Showroom,17 Amhurst Terrace,,,E09000012,Hackney,51.554342499613924,-0.0662961616597055,534156.9635237943,185710.92234859092,100023544264,E05009382,Shacklewell,www.hackneyshowroom.com,E09000012,12/27/2020
Hackney,Dance rehearsal studios,ISTD Dance Studios,22-26 Paul Street,Imperial House,,E09000012,Hackney,51.523242893688554,-0.08416290133988333,533008.9638360152,182219.92329893395,100022933360,E05009377,Hoxton East & Shoreditch,https://www.istd.org/istd2-hire/,E09000012,12/27/2020
Hackney,Dance rehearsal studios,St Barnabas,35 Shacklewell Row,,,E09000012,Hackney,51.55282748151104,-0.07149557012331022,533800.9636202161,185532.92239733983,100023015529,E05009382,Shacklewell,http://www.saintbarnabasdalston.org.uk,E09000012,12/27/2020
Hackney,Dance rehearsal studios,JazzMAD,Unit 6 Maun House,25-31 Shacklewell Lane,,E09000012,Hackney,51.551230110070975,-0.07333723342827599,533677.9636534848,185351.92244686314,10008311260,E05009382,Shacklewell,https://www.jazzmad.co.uk/contact/,E09000012,12/27/2020
Hackney,Dance rehearsal studios,Centre 151,151 Whiston Road,,,E09000012,Hackney,51.53517630070434,-0.07074627132823257,533904.6535957055,183571.43292976293,100023000000,E05009375,Haggerston,http://www.centre151.com/contact/,E09000012,12/27/2020
Hackney,Dance rehearsal studios,For The Core ,11 Pearson Street,,,E09000012,Hackney,51.533106185025844,-0.07638058619996399,533519.9637011104,183330.9229957731,100024000000,E05009375,Haggerston,https://www.forthecore.co.uk,E09000012,12/27/2020
Hackney,Dance rehearsal studios,American Musical Theatre Academy ,28 Wallis Road,,,E09000012,Hackney,51.544172993354636,-0.024787003581042688,537064.9627345928,184656.92263639282,10008349004,E05009374,Hackney Wick,https://theamta.com/gb/,E09000012,12/27/2020
Hackney,Dance rehearsal studios,Hackney Empire,291 Mare Street,,,E09000012,Hackney,51.54552161556345,-0.05547786117844201,534932.9633142198,184749.92261170613,100023014084,E05009372,Hackney Central,https://hackneyempire.co.uk/hire/spaces/,E09000012,12/27/2020
Hackney,Dance rehearsal studios,Hoxton Hall,130 Hoxton Street,,,E09000012,Hackney,51.53177145307153,-0.07998379986653217,533273.9637674359,183175.92303839116,100023135707,E05009377,Hoxton East & Shoreditch,www.hoxtonhall.co.uk/category/hire/,E09000012,12/27/2020
Hackney,Dance rehearsal studios,Arcola,24 Ashwin Street,,,E09000012,Hackney,51.54691315471493,-0.0749473466957685,533578.963680727,184868.92257833335,10008321023,E05009370,Dalston,http://www.arcolatheatre.com,E09000012,12/27/2020
Hackney,Dance rehearsal studios,Studio Wayne McGregor,14 East Bay lane,,,E09000012,Hackney,51.54744384582722,-0.02406695893096881,537105.0627235065,185021.9925364061,10008348301,E05009374,Hackney Wick,http://waynemcgregor.com,E09000012,12/27/2020
Hackney,Dance rehearsal studios,"The Old Church , Stoke Newington",207B Church Street,,,E09000012,Hackney,51.560412014527095,-0.08488074761027248,532850.9638793237,186351.92217591003,100021076029,E05009369,Clissold,http://theoldchurch.org.uk,E09000012,12/27/2020
Hackney,Dance rehearsal studios,Foulden Works,30 Foulden Road,,,E09000012,Hackney,51.55551305271173,-0.07239187829974293,533730.9636398229,185829.92231650808,100023159914,E05009385,Stoke Newington,https://fouldenworks.wordpress.com,E09000012,12/27/2020
Hackney,Dance rehearsal studios,Shoreditch Town Hall,380 Old Street,,,E09000012,Hackney,51.52667618511525,-0.07910261270487973,533349.9637444413,182610.92319212278,100022930896,E05009377,Hoxton East & Shoreditch,http://shoreditchtownhall.com/event-space-hire/venue-specification/large-committee-room,E09000012,12/27/2020
Hackney,Dance rehearsal studios,Graeae Theatre Company Bradbury Studios,138 Kinglsand Road,,,E09000012,Hackney,51.53279852462418,-0.07681170573831783,533490.9637088948,183295.9230053721,10008323888,E05009375,Haggerston,www.graeae.org/,E09000012,12/27/2020
Hackney,Dance rehearsal studios,National Circus,9 Coronet St,,,E09000012,Hackney,51.52755808546938,-0.08255020363839739,533108.2538098877,182702.7131670977,100023135619,E05009377,Hoxton East & Shoreditch,http://www.nationalcircus.org.uk,E09000012,12/27/2020
Hackney,Dance rehearsal studios,Chat's Palace,42 Brooksby's Walk,,,E09000012,Hackney,51.55026392640687,-0.042683326455879175,535805.9630754543,185300.92246146407,100023020798,E05009379,King's Park,http://chatspalace.com,E09000012,12/27/2020
Hackney,Dance rehearsal studios,TripSpace Dance,339-340 Acton Mews,,,E09000012,Hackney,51.53679363512386,-0.07586457097290396,533544.9636931249,183741.92288413766,100023016667,E05009375,Haggerston,http://www.tripspace.co.uk,E09000012,12/27/2020
Hackney,Dance rehearsal studios,Courtyard Theatre,40 Pitfield Street,,,E09000012,Hackney,51.52787925254408,-0.08337707468309591,533049.963825777,182736.9231578111,100023136422,E05009377,Hoxton East & Shoreditch,http://www.thecourtyard.org.uk,E09000012,12/27/2020
Hackney,Fashion and design,Drakes ties,3 Haberdasher St,,,E09000012,Hackney,51.52924930077637,-0.08678475009186935,532809.6138920283,182883.08311845665,10008334117,E05009378,Hoxton West,https://www.drakes.com,E09000012,12/27/2020
Hackney,Fashion and design,London Tradition Ltd,96B Wallis Road,,,E09000012,Hackney,51.54402792812236,-0.022600686862188454,537216.99269377,184644.88263929868,1.00024E+11,E05009374,Hackney Wick,http://www.londontradition.com/,E09000012,12/27/2020
Hackney,Fashion and design,Orhan London Tailoring,25a Pitfield Street,,,E09000012,Hackney,51.52711372017736,-0.08385616339421785,533018.9638336153,182650.92318113218,10008300535,E05009378,Hoxton West,http://www.orhanlondontailoring.com/,E09000012,12/27/2020
Hackney,Fashion and design,Forma Leather,Perseverance Works,38 Kingsland Road,,E09000012,Hackney,51.52812064798551,-0.07780190290960202,533435.9637219526,182773.92314774444,1.00024E+11,E05009377,Hoxton East & Shoreditch,http://www.formaleather.co.uk/,E09000012,12/27/2020
Hackney,Fashion and design,Fabrications,7 Broadway Market,,,E09000012,Hackney,51.53593187894426,-0.06231761956917287,534486.9634372655,183670.9229033382,1.00024E+11,E05009375,Haggerston,https://fabrications1.co.uk,E09000012,12/27/2020
Hackney,Fashion and design,London College of Fashion,182 Mare St,,,E09000012,Hackney,51.541123150464635,-0.05487207226641622,534987.9632997116,184261.9227450883,1.00023E+11,E05009386,Victoria,https://www.arts.ac.uk/colleges/london-college-of-fashion,E09000012,12/27/2020
Hackney,Fashion and design,Loud Apparel Limited,7 Maun House,1 Dunn Street,,E09000012,Hackney,51.5512153518673,-0.07329833411346201,533680.7036527338,185350.35244728636,10008311273,E05009382,Shacklewell,http://loud-apparel.com,E09000012,12/27/2020
Hackney,Fashion and design,The Thrifty Stitcher,Unit 21 ,3-5 Shelford Place,,E09000012,Hackney,51.55888867777151,-0.08686341111532507,532717.9639159655,186178.92222274898,10008318665,E05009369,Clissold,https://thethriftystitcher.co.uk,E09000012,12/27/2020
Hackney,Fashion and design,Ellen Sampson,352 Mare Street,,,E09000012,Hackney,51.54737642419263,-0.0545334497755543,534992.9632981336,184957.9225546997,1.00024E+11,E05009372,Hackney Central,http://www.ellensampson.com,E09000012,12/27/2020
Hackney,Fashion and design,Tura London,10 Amhurst Terrace,,,E09000012,Hackney,51.554561377899475,-0.06761590837086215,534064.8335487637,185732.84234252275,1.00023E+11,E05009382,Shacklewell,http://www.turalondon.com/,E09000012,12/27/2020
Hackney,Fashion and design,CreateLab by Nosakhari,230 Morning Lane,,,E09000012,Hackney,51.54547888459835,-0.04640778432617613,535561.9631429398,184761.9226090181,1.00021E+11,E05009376,Homerton,http://createlab.nosakhari.com/,E09000012,12/27/2020
Hackney,Fashion and design,Proposition,Studio 3A,20 Feldstead Street,,E09000012,Hackney,51.54413211633294,-0.026634812841121777,536936.9627689793,184648.92263891007,10008241118,E05009374,Hackney Wick,http://www.propositiongallery.co.uk/,E09000012,12/27/2020
Hackney,Jewellery design,Beautiful Fish Limited,141a Stamford Hill,,,E09000012,Hackney,51.573840643311264,-0.0729739124159028,533636.9637882162,187866.92188674252,10008297658,E05009383,Springfield,,E09000012,12/27/2020
Hackney,Jewellery design,Brooke Gregson UK Limited,Soho Works,Unit 4.07 The Tea Building,,E09000012,Hackney,51.52407369943361,-0.07668941521075474,533524.96381906,182325.9233922753,10008297236,E05009377,Hoxton East & Shoreditch,http://www.brookegregson.com,E09000012,12/27/2020
Hackney,Jewellery design,Datter Industries Ltd,Hackney Downs Studios,Heartspace 29,,E09000012,Hackney,51.554342500682125,-0.06629615985310154,534156.9636458945,185710.9224706905,10008346089,E05009382,Shacklewell,http://www.datterindustries.com,E09000012,12/27/2020
Hackney,Jewellery design,Early Bird Business Ltd,229-231 Kingsland Road,,,E09000012,Hackney,51.53473815649836,-0.07719133009521714,533458.9638396896,183510.92306902457,10008303093,E05009377,Hoxton East & Shoreditch,,E09000012,12/27/2020
Hackney,Jewellery design,Exclusive Gold and Rock Jewels Limited,First Floor 94 Stamford Hill,,,E09000012,Hackney,51.56763740325041,-0.07252893291112904,533685.9637726477,187177.92207298405,10008344267,E05009368,Cazenove,,E09000012,12/27/2020
Hackney,Jewellery design,Imperialdiam Limited,115b Drysdale Street,,,E09000012,Hackney,51.52772523309571,-0.07891426097211071,533359.9638643424,182727.92328237172,10008319405,E05009377,Hoxton East & Shoreditch,,E09000012,12/27/2020
Hackney,Jewellery design,Niomo Ltd,Unit 12,Sara Lane Studios,,E09000012,Hackney,51.533183989874914,-0.07892942982470827,533342.9638714454,183334.92311710241,10008344177,E05009377,Hoxton East & Shoreditch,,E09000012,12/27/2020
Hackney,Jewellery design,Regal Jeweller Manufacturing Limited,Grosvenor Works,Mount Pleasant Hill,,E09000012,Hackney,51.564414123539734,-0.05324427993078015,535031.9634087733,186854.92216132954,100023547185,E05009380,Lea Bridge,,E09000012,12/27/2020
Hackney,Jewellery design,Shangri-La Trade Corporation Limited,20-22 Wenlock Road,,,E09000012,Hackney,51.53078533728389,-0.09339078465328224,532346.9641414536,183041.92319825687,10091960344,E05009378,Hoxton West,,E09000012,12/27/2020
Hackney,Jewellery design,Multiple businesses ,92 Murray Grove,,,E09000012,Hackney,51.531045274922896,-0.08947262940306164,532617.9640676025,183077.92318803136,100023136752,E05009378,Hoxton West,,E09000012,12/27/2020
Hackney,Jewellery design,V-Flair Ltd,"3rd Floor, 86-90 Paul Street",,,E09000012,Hackney,51.525616782225704,-0.08360188174720808,533040.9639488226,182484.923348265,10091941007,E05009377,Hoxton East & Shoreditch,,E09000012,12/27/2020
Hackney,LGBT+ night time venues,Dalston Superstore,117 Kingsland High Street,,,E09000012,Hackney,51.5499743427932,-0.07716035500803806,533416.5824248363,185205.29358715075,,E05009382,Shacklewell,http://dalstonsuperstore.com/,E09000012,12/27/2020
Hackney,LGBT+ night time venues,Vogue Fabrics Dalston,66 Stoke Newington Road,,,E09000012,Hackney,51.55315089981178,-0.07621885562149688,533472.5740098413,185560.25189042394,,E05009382,Shacklewell,http://vfdalston.com,E09000012,12/27/2020
Hackney,LGBT+ night time venues,The Glory,281 Kingsland Road,,,E09000012,Hackney,51.53635076481132,-0.0787148135275043,533348.5971469982,183687.47039915452,,E05009377,Hoxton East & Shoreditch,http://www.theglory.co,E09000012,12/27/2020
Hackney,LGBT+ night time venues,The Macbeth (Regular LGBTQ+ Programming),70 Hoxton Street,,,,,51.5302251030438,-0.08024286711077748,533260.5104703018,183003.4930853144,,,,www.themacbeth.co.uk,E09000012,12/27/2020
Hackney,LGBT+ night time venues,Hackney Attic (Regular LGBTQ+ Programming),270 Mare St,,,,Hackney,51.54495048150874,-0.05512910892376169,534958.8314072407,184687.0549289941,,,,,E09000012,12/27/2020
Hackney,LGBT+ night time venues,Hackney Showroom (Regular LGBTQ+ Programming),5 Felton St,,,,,51.536937911169225,-0.08579635413873227,532855.7882813332,183739.86868546932,,,,www.hackneyshowroom.com,E09000012,12/27/2020
Hackney,LGBT+ night time venues,Arcola (Regular LGBTQ+ Programming),24 Ashwin Street,,,,Hackney,51.54692676304922,-0.0746767930071141,533597.6824756002,184870.93037777598,,,,,E09000012,12/27/2020
Hackney,LGBT+ night time venues,Redon (Regular LGBTQ+ Programming),289 Railway Arches,,,,,51.5338862218536,-0.0758867402542304,533551.9312926293,183418.5674717977,,,,https://redonlive.com/,E09000012,12/27/2020
Hackney,LGBT+ night time venues,Karoke Hole,95 Kingsland High St,Dalston,London,,,51.549377871896446,-0.07547062066406335,533535.4756923958,185142.04980416602,,,,,E09000012,12/27/2020
Hackney,Libraries,Shoreditch Library,Hoxton Street,,,E09000012,Hackney,51.53043934026169,-0.07991011769427367,533282.9638864312,183027.92320074892,100023135480,E05009377,Hoxton East & Shoreditch,,E09000012,12/27/2020
Hackney,Libraries,Hackney Central Library,Reading Lane,,,E09000012,Hackney,51.54447929868019,-0.05607030766713137,534894.9634465151,184632.92276584363,10008243137,E05009372,Hackney Central,,E09000012,12/27/2020
Hackney,Libraries,Dalston CLR James Library,Dalston Square,,,E09000012,Hackney,51.546047399645325,-0.07393303111651725,533651.8237682488,184774.50268205605,10008322989,E05009370,Dalston,,E09000012,12/27/2020
Hackney,Libraries,Homerton Library,Homerton High Street,,,E09000012,Hackney,51.54896231292343,-0.04174391520192781,535874.9631786781,185157.92262282706,100023022501,E05009379,King's Park,,E09000012,12/27/2020
Hackney,Libraries,Stoke Newington Library,Stoke Newington Church Street,,,E09000012,Hackney,51.561618902981415,-0.08279582411650677,532991.9639629127,186489.92226024,100023154905,E05009369,Clissold,,E09000012,12/27/2020
Hackney,Libraries,Clapton Library,Northwold Road,,,E09000012,Hackney,51.562667454924004,-0.05992685977290275,534573.9635327441,186648.37216786086,100023005817,E05009368,Cazenove,,E09000012,12/27/2020
Hackney,Libraries,Woodberry Down Library,Kayani Avenue,,,E09000012,Hackney,51.57008746898808,-0.0913483088444412,532374.6140948285,187416.12195910478,10008328988,E05009387,Woodberry Down,,E09000012,12/27/2020
Hackney,Libraries,Stamford Hill Library,Portland Avenue,,,E09000012,Hackney,51.57036926480263,-0.07241349352413363,533685.963773596,187481.92199082312,100023159219,E05009383,Springfield,,E09000012,12/27/2020
Hackney,Live in artists' workspace,London Live Work,38 Upper Clapton Rd, , ,E09000012,Hackney,51.559919238718244,-0.055499135090375906,534888.9634474344,186350.92229782528,100024000000,E05009380,Lea Bridge,www.theoldtramdepot.co.uk,E09000012,12/27/2020
Hackney,Makerspaces,Double Negative Darkroom,Double Negative Darkroom,"178a Glyn Road, Hackney",,E09000012,Hackney,51.55311678582764,-0.04065676654716698,535937.963039682,185621.9223741637,100024000000,E05009379,King's Park,http://dndr.org.uk/,E09000012,12/27/2020
Hackney,Makerspaces,East London Printmakers,East London Printmakers,129 Mare Street,,E09000012,Hackney,51.53844286320413,-0.05755317799893572,534809.9633487973,183958.92282633303,100024000000,E05009381,London Fields,www.eastlondonprintmakers.co.uk,E09000012,12/27/2020
Hackney,Makerspaces,Hackney Fashion Hub,Hackney Fashion Hub,116 Morning Lane,,E09000012,Hackney,51.54700736579532,-0.05017895387171712,535295.9632160215,184924.92256406526,10008240891,E05009376,Homerton,http://hackneyfashionhub.co.uk/,E09000012,12/27/2020
Hackney,Makerspaces,Photochats,Photochats,42-44 Brooksby's Walk,,E09000012,Hackney,51.55026392640687,-0.042683326455879175,535805.9630754543,185300.92246146407,100023000000,E05009379,King's Park,http://www.chatspalace.com,E09000012,12/27/2020
Hackney,Makerspaces,Print Club London,Print Club London,Unit 3,10-28 Millers Avenue,E09000012,Hackney,51.552443015442584,-0.07446250309276198,533596.4036759549,185484.74241079838,100023000000,E05009382,Shacklewell,http://printclublondon.com,E09000012,12/27/2020
Hackney,Makerspaces,Rapid Eye,Rapid Eye,79 Leonard Street,,E09000012,Hackney,51.52481963834056,-0.08269832287199094,533105.9638094313,182397.92325008626,10008245856,E05009377,Hoxton East & Shoreditch,http://www.rapideye.uk.com,E09000012,12/27/2020
Hackney,Makerspaces,Rara,Rara,2 Grosvenor Way,,E09000012,Hackney,51.565364641186115,-0.052539993034224325,535077.96327431,186961.9220102459,100023000000,E05009380,Lea Bridge,www.r-a-r-a.com/,E09000012,12/27/2020
Hackney,Makerspaces,Terrace Studios And Gallery,,4-17 Frederick Terrace,,E09000012,Hackney,51.53954390934675,-0.07577738694187287,533542.9636923351,184047.92280118552,10008240683,E05009381,London Fields,https://www.facebook.com/TERRACE.STUDIOS.GALLERY/,E09000012,12/27/2020
Hackney,Makerspaces,The School Of Stuff,The School Of Stuff,73-75 Shacklewell Lane,,E09000012,Hackney,51.552741383281,-0.07118186538160991,533822.9636141967,185523.92239975883,10008320329,E05009382,Shacklewell,www.theschoolofstuff.co.uk/,E09000012,12/27/2020
Hackney,Makerspaces,Turning Earth Ceramics,Turning Earth E2,Railway Arches 361-362,Whiston Road,E09000012,Hackney,51.53440706218736,-0.07564801652886959,533566.9636882748,183476.92295594636,10008243885,E05009375,Haggerston,http://turningearthceramics.co.uk,E09000012,12/27/2020
Hackney,Making and manufacturing,Capital Models Limited,Studio 7 & 8 The Hangar,38 Kingsland Road,,E09000012,Hackney,51.52812064905389,-0.07780190110423679,533435.9638440523,182773.9232698441,1.00024E+11,E05009377,Hoxton East & Shoreditch,https://www.capitalmodels.co.uk,E09000012,12/27/2020
Hackney,Making and manufacturing,Kemp London ,32 Shackwell Lane,,,E09000012,Hackney,51.550858562516574,-0.07261728685263429,533728.9637615869,185311.92257978645,1.00023E+11,E05009370,Dalston,http://www.kemplondon.com/,E09000012,12/27/2020
Hackney,Making and manufacturing,The Beehive Foundry (James Hoyle & Son),48-50 Andrews Road,,,E09000012,Hackney,51.5343338617891,-0.0581318338007697,534781.9634802248,183500.92307170085,10008299117,E05009381,London Fields,http://www.jameshoyleandson.co.uk,E09000012,12/27/2020
Hackney,Museums and public galleries,Hackney Museum,1 Reading Lane,NA,NA,E09000012,Hackney,51.54447929868019,-0.05607030766713137,534894.9634465151,184632.92276584363,10008313143,E05009372,Hackney Central,http://www.hackney.gov.uk/cm-museum.htm,E09000012,12/27/2020
Hackney,Museums and public galleries,Geffrye Museum,136 Kingsland Road,London,NA,E09000012,Hackney,51.531557221938435,-0.07624406529552517,533533.9638188663,183158.92316478782,100021051873,E05009375,Haggerston,http://www.geffrye-museum.org.uk/,E09000012,12/27/2020
Hackney,Museums and public galleries,Sutton House,2 & 4 Homerton High St,NA,NA,E09000012,Hackney,51.54848590740279,-0.05040426015543995,535275.9633436317,185088.9226410914,100023022522,E05009376,Homerton,www.nationaltrust.org.uk/sutton-house,E09000012,12/27/2020
Hackney,Music (office based businesses),Red Light Management,42644 Scrutton Street,Hackney,,E09000012,Hackney,51.523209104532526,-0.08374626602067274,533037.9639504058,182216.92342137021,10008331421,E05009377,Hoxton East & Shoreditch,,E09000012,12/27/2020
Hackney,Music (office based businesses),68 Publishing Ltd,91 Tabernacle Street,Hackney,,E09000012,Hackney,51.52598566422874,-0.0841630437497797,533000.9639598881,182524.92333688063,100000000000,E05009377,Hoxton East & Shoreditch,,E09000012,12/27/2020
Hackney,Music (office based businesses),Enhanced Music Ltd,Unit 6 65,Rivington Street,Hackney,E09000012,Hackney,51.52629377051001,-0.07991162763696973,533294.9638812146,182566.92332566087,10008332365,E05009377,Hoxton East & Shoreditch,www.enhancedmusic.com,E09000012,12/27/2020
Hackney,Music (office based businesses),Soundtree Music Ltd,Bath House 8,Chapel Place,Hackney,E09000012,Hackney,51.52636722798783,-0.08220077645356194,533135.963923919,182570.92332448316,10091900740,E05009377,Hoxton East & Shoreditch,www.soundtreemusic.com,E09000012,12/27/2020
Hackney,Music (office based businesses),Peters Edition Ltd,2-6 Bache's St Hoxton,,,E09000012,Hackney,51.52760927425108,-0.08556538245560767,532898.9639886641,182702.92328871595,0,E05009378,Hoxton West,www.editionpeters.com,E09000012,12/27/2020
Hackney,Music (office based businesses),Btm Records Ltd,1 Wenlock Road,Hackney,,E09000012,Hackney,51.53032600288983,-0.09390019105290205,532312.9641506239,182989.9232119483,10008338511,E05009378,Hoxton West,,E09000012,12/27/2020
Hackney,Music (office based businesses),Solar Management Ltd,Unit G11 Union Wharf,23,Wenlock Road,E09000012,Hackney,51.53223262552143,-0.09501723676944734,532229.9641741193,183199.92315495573,200000000000,E05009378,Hoxton West,,E09000012,12/27/2020
Hackney,Music (office based businesses),Black Note Music Management Ltd,41 Southborough Road,Hackney,,E09000012,Hackney,51.53859840580757,-0.04634184524027107,535586.9632592024,183996.92293817684,100000000000,E05009386,Victoria,,E09000012,12/27/2020
Hackney,Music (office based businesses),Buff Records Ltd,111 Mortimer Road,Hackney,,E09000012,Hackney,51.542811169142,-0.07924497719305497,533292.9638817799,184404.92282587168,100000000000,E05009371,De Beauvoir,,E09000012,12/27/2020
Hackney,Music (office based businesses),Half Baked Records Ltd,90 Wallis Road,Hackney,,E09000012,Hackney,51.544390168262225,-0.02272963443668773,537206.9628186289,184684.9227498641,100000000000,E05009374,Hackney Wick,,E09000012,12/27/2020
Hackney,Music (office based businesses),Cp Audio Ltd,596 Kingsland Road,Hackney,,E09000012,Hackney,51.5460133504282,-0.07546124942892812,533545.9638120446,184767.92272738373,10008291965,E05009370,Dalston,,E09000012,12/27/2020
Hackney,Music (office based businesses),Soulvent Records Ltd,42 Blurton Road,Hackney,,E09000012,Hackney,51.553390419934,-0.047367324256642106,535471.9632895633,185639.922490552,100000000000,E05009380,Lea Bridge,,E09000012,12/27/2020
Hackney,Music (office based businesses),Cutsy Ltd,160 Dalston Lane,Hackney,,E09000012,Hackney,51.548125776957725,-0.06612681606929716,534186.9636371516,185019.9226585853,100000000000,E05009372,Hackney Central,,E09000012,12/27/2020
Hackney,Music (office based businesses),Soviet Science Music Publishing Ltd,29 St. John's Church Road,Hackney,,E09000012,Hackney,51.54962808027506,-0.052576780418854,535121.9633857122,185211.92260664742,100000000000,E05009376,Homerton,,E09000012,12/27/2020
Hackney,Music (office based businesses),Elite Management On Demand Ltd,41 Church Walk,Hackney,,E09000012,Hackney,51.55392196008014,-0.08394138975933993,532934.9639786857,185631.92249338096,10008239204,E05009369,Clissold,,E09000012,12/27/2020
Hackney,Music (office based businesses),Blue Print Music Publishing Ltd,12 Colne Road,Hackney,,E09000012,Hackney,51.553389514815436,-0.039216919008968454,536036.9631348358,185654.92248683248,100000000000,E05009379,King's Park,,E09000012,12/27/2020
Hackney,Music (office based businesses),Lucky Seven,127 Stoke Newington Church Stre,Hackney,,E09000012,Hackney,51.56191528717163,-0.08057595896384043,533144.9639213188,186526.92224947212,100000000000,E05009369,Clissold,,E09000012,12/27/2020
Hackney,Music (office based businesses),Milton Music Ltd,29 Brownswood Road,Hackney,,E09000012,Hackney,51.5633231174211,-0.09465613136846408,532164.9641891934,186657.92221343785,100000000000,E05009367,Brownswood,,E09000012,12/27/2020
Hackney,Music recording studios,Baltic Studios,Unit 1 Baltic Place,Kingsland Road,,,Hackney,51.536751915776826,-0.07709373503670505,533459.8448919081,183735.03848470206,,,,https://milocostudios.com/studios/baltic-studios/,E09000012,12/27/2020
Hackney,Music recording studios,Strongroom Bar And Kitchen,120-124 Curtain Road,Hackney,,E09000012,Hackney,51.52601000061368,-0.08012500052182868,533280.9918389198,182534.978693242,0,E05009377,Hoxton East & Shoreditch,http://www.strongroombar.com,E09000012,12/27/2020
Hackney,Music recording studios,Noatune Studios,Netil House 1 Westgate St,,,E09000012,Hackney,51.53747545716388,-0.05778182425948099,534796.9634749164,183850.92297698226,0,E05009381,London Fields,,E09000012,12/27/2020
Hackney,Music recording studios,Secretsundaze Studios,Unit 4 2-18 Warburton Rd,London,,E09000012,Hackney,51.53874200006063,-0.05767799758846207,534800.4244719429,183991.95772901678,0,E05009381,London Fields,http://www.secretsundazestudios.net/,E09000012,12/27/2020
Hackney,Music recording studios,Urchin Studios,Unit 1 2-18 Warburton Rd,,,E09000012,Hackney,51.53879753631453,-0.05724966516157217,534829.9634654464,183998.92293719167,0,E05009381,London Fields,www.urchinstudios.co.uk,E09000012,12/27/2020
Hackney,Music recording studios,Silent Studios,32 Fortescue Avenue,Hackney,,E09000012,Hackney,51.540594301971254,-0.05714430859105239,534831.9634641623,184198.9228833494,10008318992,E05009381,London Fields,,E09000012,12/27/2020
Hackney,Music recording studios,Rising Tide Trust,270 Mare Street,Hackney,,E09000012,Hackney,51.544857007857146,-0.05498696304470087,534968.9634267092,184676.92275338212,100000000000,E05009376,Homerton,,E09000012,12/27/2020
Hackney,Music recording studios,Sound Savers Recording Studio,Unit 24 Sedgwick St,,,E09000012,Hackney,51.547680964303076,-0.04417881286282414,535709.9632243119,185010.92266243446,0,E05009376,Homerton,,E09000012,12/27/2020
Hackney,Music recording studios,Nelly Ben Hayoun Studios Ltd,112 Chatsworth Road,Hackney,,E09000012,Hackney,51.5549833636152,-0.045279500378347756,535611.9632513006,185820.92244146293,200000000000,E05009380,Lea Bridge,,E09000012,12/27/2020
Hackney,Music rehearsal studios,Arcola Studio 5,24 Ashwin Street,,,,Hackney,51.54692046625663,-0.07470775785476542,533595.5539749785,184870.17355667613,,,,https://www.arcolatheatre.com/about/hire/,E09000012,12/27/2020
Hackney,Music rehearsal studios,Gillet Square  Studios,Unit 10 Gillett Square,,,,Hackney,51.54872161405923,-0.07657951833562528,533460.5130656585,185067.0467570183,,,,,E09000012,12/27/2020
Hackney,Music rehearsal studios,Rooz Studios,Hackney ,,,E09000012,Hackney,51.52769235678421,-0.08734960123451949,532774.9640227263,182708.92328736192,10008332356,E05009378,Hoxton West,www.roozstudios.co.uk,E09000012,12/27/2020
Hackney,Music rehearsal studios,Premises Studios,209 Hackney Road,Hackney,,E09000012,Hackney,51.531229084450366,-0.07160083500590472,533856.963731251,183130.92317155824,100000000000,E05009375,Haggerston,www.premisesstudios.com,E09000012,12/27/2020
Hackney,Music rehearsal studios,Hoxton Hall,130 Hoxton Street,Hackney,,E09000012,Hackney,51.53177145413536,-0.07998379805986601,533273.9638896323,183175.9231599855,100000000000,E05009377,Hoxton East & Shoreditch,www.hoxtonhall.co.uk,E09000012,12/27/2020
Hackney,Music rehearsal studios,Kafri Studios,357 Railway Arches,Laburnum Street,Hackney,E09000012,Hackney,51.53484148248569,-0.07581713977591813,533553.9638138097,183524.9230645516,10008238318,E05009375,Haggerston,www.kafristudios.co.uk,E09000012,12/27/2020
Hackney,Music rehearsal studios,Rising Tide Trust,270 Mare Street,Hackney,,E09000012,Hackney,51.544857007857146,-0.05498696304470087,534968.9634267092,184676.92275338212,100000000000,E05009376,Homerton,,E09000012,12/27/2020
Hackney,Music rehearsal studios,Lsh Spaces,Atlas Wharf Berkshire Road,Hackney,,E09000012,Hackney,51.54469128254672,-0.0245914862318053,537076.9628535144,184714.92274199193,10091898280,E05009374,Hackney Wick,www.lshspaces.com,E09000012,12/27/2020
Hackney,Music rehearsal studios,Oto Project Space,1-7 Ashwin Street ,,,E09000012,Hackney,51.546497177711075,-0.07480624197734458,533589.9637999487,184822.92271242075,100023016515,E05009370,Dalston,,E09000012,12/27/2020
Hackney,Music rehearsal studios,The Blue Studios,160 Dalston Lane,Hackney,,E09000012,Hackney,51.548125776957725,-0.06612681606929716,534186.9636371516,185019.9226585853,100000000000,E05009372,Hackney Central,www.thebluestudios.co.uk,E09000012,12/27/2020
Hackney,Music rehearsal studios,Gunfactory Studios,Unit 2 2a,Barnabas Road,Hackney,E09000012,Hackney,51.548167967152885,-0.04264344103016064,535814.9631953763,185067.92264691432,10008340190,E05009376,Homerton,www.gunfactorystudios.com,E09000012,12/27/2020
Hackney,Music rehearsal studios,Vortex Jazz Club,11 Gillett Square,Hackney,,E09000012,Hackney,51.54881167547437,-0.07665576091456405,533454.9638366671,185076.92264354194,10091818908,E05009370,Dalston,www.vortexjazz.co.uk,E09000012,12/27/2020
Hackney,Music rehearsal studios,Reel Rebels Music Studios,7a Bouverie Mews ,,,E09000012,Hackney,51.5624677415932,-0.07861940620490142,533278.9638847316,186591.92223164684,0,E05009385,Stoke Newington,"http://reelrebelsradio.com/studio-hire/
http://reelrebelsmusicstudios.weebly.com/",E09000012,12/27/2020
Hackney,Music rehearsal studios,Karma Studios Ltd.,7a Bouverie Mews,Hackney,,E09000012,Hackney,51.56262311338344,-0.07822331400653028,533305.963877347,186609.9222267284,100000000000,E05009385,Stoke Newington,,E09000012,12/27/2020
Hackney,Music venues (all),Moth Club,Hackney Trades Hall Valette Street,Hackney,,E09000012,HACKNEY,51.5456389548926,-0.054420006946083614,535005.9632945792,184764.9226076908,100023022302,E05009376,Homerton,www.mothclub.co.uk,E09000012,12/27/2020
Hackney,Music venues (all),Total Refreshment Centre,2A Foulden Road,,,,,51.55578362091325,-0.07383960108837623,533629.8136675081,185857.36230870138,,,,www.totalrefreshment.net,E09000012,12/27/2020
Hackney,Music venues (all),Kansas Smitty's,63-65 Broadway Market,,,,,51.537326413861926,-0.06139439953924659,534546.8794309753,183827.6977736061,,,,www.kansassmittys.com,E09000012,12/27/2020
Hackney,Music venues (all),EartH,11-17 Stoke Newington Rd,,,,,51.55084592303333,-0.07519355033418951,533550.39205956,185305.80706112186,,,,https://earthackney.co.uk/,E09000012,12/27/2020
Hackney,Music venues (all),Oslo Hackney,1A Amhurst Rd,,,,,51.54801828674351,-0.057514854034456935,534784.360962462,185023.80140403198,,,,www.oslohackney.com,E09000012,12/27/2020
Hackney,Music venues (all),Paper Dress Vintage,352 Mare Street,,,,,51.54738629954975,-0.05476801248769767,534976.6712835147,184958.58790049847,,,,www.paperdressvintage.co.uk,E09000012,12/27/2020
Hackney,Music venues (all),The Yard,89 Worship Street,Hackney,,E09000012,Hackney,51.522121595299865,-0.08213418747126913,533152.9639196759,182098.92345385527,100000000000,E05009377,Hoxton East & Shoreditch,www.theyardshoreditch.com,E09000012,12/27/2020
Hackney,Music venues (all),Queen Of Hoxton,1 Curtain Road,Hackney,,E09000012,Hackney,51.522267552435025,-0.08116222627758662,533219.9639015307,182116.92344894022,100000000000,E05009377,Hoxton East & Shoreditch,www.queenofhoxton.com/,E09000012,12/27/2020
Hackney,Music venues (all),Horse & Groom,28 Curtain Road,Hackney,,E09000012,Hackney,51.522839642385065,-0.08040297511914662,533270.9638876561,182181.92343112006,100000000000,E05009377,Hoxton East & Shoreditch,www.thehorseandgroom.net,E09000012,12/27/2020
Hackney,Music venues (all),Boxpark,Unit 57 Boxpark Retail Mall 2-10,Bethnal Green Road,Hackney,E09000012,Hackney,51.52345599874448,-0.076311816540244,533552.9638115923,182257.92341043142,10008331133,E05009377,Hoxton East & Shoreditch,,E09000012,12/27/2020
Hackney,Music venues (all),Village Underground,54 Holywell Lane,Hackney,,E09000012,Hackney,51.52363665181491,-0.07855305613408112,533396.9638536046,182273.92340594484,10091784233,E05009377,Hoxton East & Shoreditch,www.villageunderground.co.uk,E09000012,12/27/2020
Hackney,Music venues (all),Shoreditch House,Ebor Street Hackney,,,E09000012,Hackney,51.52375491642569,-0.0758955702401091,533580.9638040724,182291.9234011295,10008334386,E05009377,Hoxton East & Shoreditch,,E09000012,12/27/2020
Hackney,Music venues (all),Concrete,The Tea Building 56,Shoreditch High Street,Hackney,E09000012,Hackney,51.52407369942904,-0.07668941520955172,533524.9638191564,182325.9233917694,10008297229,E05009377,Hoxton East & Shoreditch,www.concretespace.co.uk/,E09000012,12/27/2020
Hackney,Music venues (all),The Old Blue Last,38 Great Eastern Street,Hackney,,E09000012,Hackney,51.52438107087522,-0.08007862892413552,533288.9638825797,182353.92338391207,100000000000,E05009377,Hoxton East & Shoreditch,www.theoldbluelast.com,E09000012,12/27/2020
Hackney,Music venues (all),Red Gallery,1-3 Rivington Street,Hackney,,E09000012,Hackney,51.52616876012312,-0.08326152828826452,533062.9639433813,182546.92333095352,100000000000,E05009377,Hoxton East & Shoreditch,www.redgalleryldn.com,E09000012,12/27/2020
Hackney,Music venues (all),Hoxton Pony,104-108 Curtain Road,Hackney,,E09000012,Hackney,51.525424919631455,-0.0801211956212941,533282.9638840433,182469.92335206235,10008241848,E05009377,Hoxton East & Shoreditch,www.thehoxtonpony.com,E09000012,12/27/2020
Hackney,Music venues (all),The Yard,140 Tabernacle Street,Hackney,,E09000012,Hackney,51.52569597674057,-0.08404546277061004,533009.9639572786,182492.92334556236,10091876623,E05009377,Hoxton East & Shoreditch,,E09000012,12/27/2020
Hackney,Music venues (all),Trapeze Bar,89 Great Eastern Street,Hackney,,E09000012,Hackney,51.52569459762842,-0.08341119956582319,533053.9639454873,182493.92334532575,10091904454,E05009377,Hoxton East & Shoreditch,www.trapezebar.co.uk,E09000012,12/27/2020
Hackney,Music venues (all),Ace Hotel,100 Shoreditch High Street,Hackney,,E09000012,Hackney,51.52572081833408,-0.0773263753684041,533475.9638324219,182507.92334185436,10008293853,E05009377,Hoxton East & Shoreditch,,E09000012,12/27/2020
Hackney,Music venues (all),Miranda,100 Shoreditch High Street,Hackney,,E09000012,Hackney,51.52572081833408,-0.0773263753684041,533475.9638324219,182507.92334185436,10008293853,E05009377,Hoxton East & Shoreditch,,E09000012,12/27/2020
Hackney,Music venues (all),Strongroom Bar And Kitchen,120-124 Curtain Road,Hackney,,E09000012,Hackney,51.52601000061368,-0.08012500052182868,533280.9918389198,182534.978693242,0,E05009377,Hoxton East & Shoreditch,http://www.strongroombar.com,E09000012,12/27/2020
Hackney,Music venues (all),Barrio Shoreditch,141-143 Shoreditch High Street,Hackney,,E09000012,Hackney,51.526079315055,-0.0783492540665908,533403.9638518754,182545.92333144735,10008320330,E05009377,Hoxton East & Shoreditch,,E09000012,12/27/2020
Hackney,Music venues (all),Golden Bee,Islington ,,,E09000012,Hackney,51.526215704026264,-0.08503279172538764,532939.9639764584,182548.92333036353,10008980464,E05009378,Hoxton West,www.goldenbee.co.uk/,E09000012,12/27/2020
Hackney,Music venues (all),The Lighthouse,62 Rivington Street,Hackney,,E09000012,Hackney,51.52615425272264,-0.07962916960106321,533314.9638757792,182551.9233297548,10091889776,E05009377,Hoxton East & Shoreditch,,E09000012,12/27/2020
Hackney,Music venues (all),Dragon Bar,138 Shoreditch High Street,Hackney,,E09000012,Hackney,51.52622191602978,-0.07827116364592679,533408.9638505963,182561.92332709103,100000000000,E05009377,Hoxton East & Shoreditch,,E09000012,12/27/2020
Hackney,Music venues (all),Red Market,7 Bath Place,Hackney,,E09000012,Hackney,51.526312809799855,-0.0827220615967815,533099.9639335463,182563.9233263624,100000000000,E05009377,Hoxton East & Shoreditch,,E09000012,12/27/2020
Hackney,Music venues (all),Autograph Abp,1 Rivington Place,Hackney,,E09000012,Hackney,51.52644773486219,-0.07942939756758619,533327.9638724357,182584.92332078173,10091784356,E05009377,Hoxton East & Shoreditch,www.autograph-abp.co.uk,E09000012,12/27/2020
Hackney,Music venues (all),Bounce Shoreditch,239 Old Street,Hackney,,E09000012,Hackney,51.52662629587957,-0.08429472082140897,532989.9639632759,182595.9233176259,10008287321,E05009378,Hoxton West,,E09000012,12/27/2020
Hackney,Music venues (all),Cargo,83 Rivington Street,Hackney,,E09000012,Hackney,51.526537611249836,-0.07887777993364944,533365.9638622785,182595.9233178083,10091779809,E05009377,Hoxton East & Shoreditch,www.cargo-london.com,E09000012,12/27/2020
Hackney,Music venues (all),Roadtrip & The Workshop,243 Old Street,Hackney,,E09000012,Hackney,51.52666651730378,-0.0840046976395635,533009.9639579327,182600.9233162824,100000000000,E05009378,Hoxton West,www.roadtripbar.com,E09000012,12/27/2020
Hackney,Music venues (all),Shoreditch Town Hall,380 Old Street,Hackney,,E09000012,Hackney,51.526676186179074,-0.07910261089840027,533349.9638666381,182610.92331371637,10091784164,E05009377,Hoxton East & Shoreditch,www.shoreditchtownhall.com,E09000012,12/27/2020
Hackney,Music venues (all),The Corner Shop,123 Shoreditch High Street,Hackney,,E09000012,Hackney,51.52705102654842,-0.07838040040468261,533398.9638536461,182653.92330202728,100000000000,E05009377,Hoxton East & Shoreditch,,E09000012,12/27/2020
Hackney,Music venues (all),Trafik,331 Old Street,Hackney,,E09000012,Hackney,51.52714958768207,-0.08055319443651253,533247.9638942799,182660.92330007453,100000000000,E05009377,Hoxton East & Shoreditch,www.trafik-london.com,E09000012,12/27/2020
Hackney,Music venues (all),333 Club,333 Old Street,Hackney,,E09000012,Hackney,51.5271748948971,-0.08045121139492308,533254.9638924111,182663.9232992612,100000000000,E05009377,Hoxton East & Shoreditch,,E09000012,12/27/2020
Hackney,Music venues (all),Shoreditch Platform,1 Kingsland Road,Hackney,,E09000012,Hackney,51.52739227307696,-0.07835160687145838,533399.9638535285,182691.92329167406,10091775140,E05009377,Hoxton East & Shoreditch,,E09000012,12/27/2020
Hackney,Music venues (all),The Old Shoreditch Station,1 Kingsland Road,Hackney,,E09000012,Hackney,51.52739227307696,-0.07835160687145838,533399.9638535285,182691.92329167406,10091775140,E05009377,Hoxton East & Shoreditch,,E09000012,12/27/2020
Hackney,Music venues (all),Hoxton Square Bar And Kitchen,2-4 Hoxton Square London,,,E09000012,Hackney,51.52750614943105,-0.08200872111238276,533145.9639219088,182697.92328999692,10091942715,E05009377,Hoxton East & Shoreditch,www.hoxtonsquarebar.com,E09000012,12/27/2020
Hackney,Music venues (all),Electricity Showrooms,39 Hoxton Square,Hackney,,E09000012,Hackney,51.52748753149778,-0.08032271870605602,533262.9638904245,182698.92328974436,100000000000,E05009377,Hoxton East & Shoreditch,www.electricityshowrooms.com,E09000012,12/27/2020
Hackney,Music venues (all),Charlie Wright's International Bar,45 Pitfield Street,Hackney,,E09000012,Hackney,51.52769760690443,-0.08381721646064266,533019.9639559316,182715.92328509846,100000000000,E05009378,Hoxton West,,E09000012,12/27/2020
Hackney,Music venues (all),Troy Bar,10 Hoxton Street,Hackney,,E09000012,Hackney,51.52764362156743,-0.0799701408727435,533286.963884046,182716.9232848523,10008242403,E05009377,Hoxton East & Shoreditch,www.troybar.co.uk,E09000012,12/27/2020
Hackney,Music venues (all),Catch,22 Kingsland Road,Hackney,,E09000012,Hackney,51.52774298479302,-0.07780340003811854,533436.9638437233,182731.92328078352,100000000000,E05009377,Hoxton East & Shoreditch,,E09000012,12/27/2020
Hackney,Music venues (all),The Red Lion,41 Hoxton Street,Hackney,,E09000012,Hackney,51.52809837207113,-0.08028259279833132,533263.9638904709,182766.9232712498,100000000000,E05009377,Hoxton East & Shoreditch,,E09000012,12/27/2020
Hackney,Music venues (all),Looking Glass Cocktail Club,Flat 1 The Storehouse,49,Hackney Road,E09000012,Hackney,51.52819419828516,-0.07625616081092322,533542.9638153517,182784.92326633277,10008330559,E05009377,Hoxton East & Shoreditch,,E09000012,12/27/2020
Hackney,Music venues (all),Basing House,25 Kingsland Road,Hackney,,E09000012,Hackney,51.5288989137843,-0.07810070220877374,533412.9638506784,182859.9232459073,100000000000,E05009377,Hoxton East & Shoreditch,www.basinghouse.co.uk/,E09000012,12/27/2020
Hackney,Music venues (all),Lion & Lamb,Fanshaw Street Hackney,,,E09000012,Hackney,51.52962081727957,-0.0815449363907269,533171.963916118,182933.9232258827,100000000000,E05009377,Hoxton East & Shoreditch,,E09000012,12/27/2020
Hackney,Music venues (all),The Macbeth,70 Hoxton Street,Hackney,,E09000012,Hackney,51.53014444171779,-0.08002345768132484,533275.963888276,182994.9232092272,100000000000,E05009377,Hoxton East & Shoreditch,www.themacbeth.co.uk,E09000012,12/27/2020
Hackney,Music venues (all),Beehive,36 New North Road,Hackney,,E09000012,Hackney,51.53185603513179,-0.08625222073830989,532838.964007909,183173.92316113535,100000000000,E05009378,Hoxton West,,E09000012,12/27/2020
Hackney,Music venues (all),Hoxton Hall,130 Hoxton Street,Hackney,,E09000012,Hackney,51.53177145413536,-0.07998379805986601,533273.9638896323,183175.9231599855,100000000000,E05009377,Hoxton East & Shoreditch,www.hoxtonhall.co.uk,E09000012,12/27/2020
Hackney,Music venues (all),Number 177 Bar,177 Hoxton Street,Hackney,,E09000012,Hackney,51.53187809743836,-0.08045511468196775,533240.9638986489,183186.92315703625,100000000000,E05009377,Hoxton East & Shoreditch,,E09000012,12/27/2020
Hackney,Music venues (all),Shelter,267 Kingsland Road,Hackney,,E09000012,Hackney,51.53566327180845,-0.07712349376645447,533460.963838811,183613.9230405629,100000000000,E05009377,Hoxton East & Shoreditch,,E09000012,12/27/2020
Hackney,Music venues (all),Kings Head Members Club,257 Kingsland Road,Hackney,,E09000012,Hackney,51.535438851018405,-0.07714737378924214,533459.9638391875,183588.92304734845,100000000000,E05009377,Hoxton East & Shoreditch,,E09000012,12/27/2020
Hackney,Music venues (all),La Cabina,232 Kingsland Road,Hackney,,E09000012,Hackney,51.53564695046166,-0.07667717554860454,533491.963830351,183612.92304078693,100000000000,E05009375,Haggerston,,E09000012,12/27/2020
Hackney,Music venues (all),Guest Projects,Sunbury House 1,Andrews Road,Hackney,E09000012,Hackney,51.535604971123725,-0.06158168543018142,534538.9635455491,183635.92303444474,100000000000,E05009381,London Fields,,E09000012,12/27/2020
Hackney,Music venues (all),The Glory,281 Kingsland Road,Hackney,,E09000012,Hackney,51.5361936997548,-0.07711555265716873,533459.9638388373,183672.9230245545,100000000000,E05009377,Hoxton East & Shoreditch,www.theglory.co,E09000012,12/27/2020
Hackney,Music venues (all),Martello Hall,137 Mare Street,Hackney,,E09000012,Hackney,51.53866345959077,-0.057298635908117214,534826.963466312,183983.92294122546,100000000000,E05009381,London Fields,,E09000012,12/27/2020
Hackney,Music venues (all),Mangle E8,13-18 Warburton Rd London,,,E09000012,Hackney,51.5388794562136,-0.05785184015604677,534787.9634767511,184006.922934964,0,E05009381,London Fields,www.manglee8.com,E09000012,12/27/2020
Hackney,Music venues (all),The Dolphin,165 Mare Street,Hackney,,E09000012,Hackney,51.5399135539034,-0.056221521346701234,534897.9634466425,184124.9229033945,100000000000,E05009381,London Fields,,E09000012,12/27/2020
Hackney,Music venues (all),Peoples Park Tavern,360 Victoria Park Road,Hackney,,E09000012,Hackney,51.54162949685786,-0.03774662405390672,536173.963097549,184349.92284333013,100000000000,E05009374,Hackney Wick,www.peoplesparktavern.pub,E09000012,12/27/2020
Hackney,Music venues (all),The Haggerston,438 Kingsland Road,Hackney,,E09000012,Hackney,51.54230530195605,-0.07581951577458718,533531.9638162515,184354.92283955333,100000000000,E05009381,London Fields,,E09000012,12/27/2020
Hackney,Music venues (all),Brilliant Corners,470 Kingsland Road,Hackney,,E09000012,Hackney,51.54305897164119,-0.07571563101838699,533536.9638148027,184438.92281674198,10008291706,E05009381,London Fields,,E09000012,12/27/2020
Hackney,Music venues (all),Fieldworks,274 Richmond Road,Hackney,,E09000012,Hackney,51.54298219541256,-0.05798005288645366,534766.9634810274,184462.92281172093,100000000000,E05009381,London Fields,,E09000012,12/27/2020
Hackney,Music venues (all),Bar 512,512 Kingsland Road,Hackney,,E09000012,Hackney,51.543986223838644,-0.0757774879803161,533529.9638166301,184541.92278876796,100000000000,E05009381,London Fields,,E09000012,12/27/2020
Hackney,Music venues (all),The Kenton,Kenton Road Hackney,,,E09000012,Hackney,51.54412263987772,-0.04434575891294305,535708.9632248519,184614.92277100927,100000000000,E05009374,Hackney Wick,www.kentonpub.co.uk,E09000012,12/27/2020
Hackney,Music venues (all),Vinyl Pimp Record Shop,14 Felstead Street,Hackney,,E09000012,Hackney,51.54435800734669,-0.026163524954904864,536968.9628825564,184674.92275321257,10008318997,E05009374,Hackney Wick,www.vinylpimp.co.uk,E09000012,12/27/2020
Hackney,Music venues (all),Number 90,90 Wallis Road,Hackney,,E09000012,Hackney,51.544390168262225,-0.02272963443668773,537206.9628186289,184684.9227498641,100000000000,E05009374,Hackney Wick,www.number90bar.co.uk,E09000012,12/27/2020
Hackney,Music venues (all),Lift,574 Kingsland Road,Hackney,,E09000012,Hackney,51.54551862738852,-0.07545326817825006,533547.9638115452,184712.92274232407,10091775595,E05009370,Dalston,,E09000012,12/27/2020
Hackney,Music venues (all),The Rocksteady,574 Kingsland Road,Hackney,,E09000012,Hackney,51.54551862738852,-0.07545326817825006,533547.9638115452,184712.92274232407,10091775595,E05009370,Dalston,,E09000012,12/27/2020
Hackney,Music venues (all),Junction House,578 Kingsland Road,Hackney,,E09000012,Hackney,51.545581531856506,-0.07545061532811827,533547.9638115386,184719.9227404222,100000000000,E05009370,Dalston,,E09000012,12/27/2020
