BOROUGH,Cultural Venue Type,site_name,address1,address2,address3,borough_code,borough_name,latitude,longitude,easting,northing,os_addressbase_uprn,ward_2018_code,ward_2018_name,website,gss_code,runtime
Harrow,Archives,Harrow School Archives,5 High Street,Harrow on the Hill,,E09000015,Harrow,51.5722820843308,-0.3373830230332402,515318.9686482354,187243.92193388898,10070266096,E05000289,Harrow on the Hill,https://www.harrowschool.org.uk/The-Archive,E09000015,12/27/2020
Harrow,Archives,Society of the Divine Saviour (Salvatorians),129 Spencer Road,Harrow Weald,,E09000015,Harrow,51.60015880621216,-0.3373896868539994,515247.9686658964,190343.921088166,100023000000,E05000304,Wealdstone,http://www.salvatorians.com/,E09000015,12/27/2020
Harrow,Archives,North London Collegiate School,Canons Drive ,Edgware,,E09000015,Harrow,51.61417689035562,-0.29470109982720466,518167.9678736008,191970.92064669286,200000000000,E05000286,Canons,https://www.nlcs.org.uk/,E09000015,12/27/2020
Harrow,Archives,Harrow Local History Collection,Headstone Manor and Museum Pinner View,Harrow,,E09000015,Harrow,51.59406081511603,-0.35261308223347515,514208.96894635935,189641.92127971083,200000000000,E05000292,Headstone North,http://www.harrow.gov.uk/info/100009/leisure_and_culture/183/harrow_local_history_centre,E09000015,12/27/2020
Harrow,Artists workspaces,,Usurp Art,140 Vaughan Road,,E09000015,Harrow,51.579042533493386,-0.3493606728198522,514471.9688780997,187976.9217344409,200000000000,E05000305,West Harrow,www.usurp.org.uk,E09000015,12/27/2020
Harrow,Artists workspaces,Whitefriars Avenue,Winsor & Newton Building,Whitefrairs Avenue,,E09000015,Harrow,51.598582672561434,-0.34039283106657015,515043.96872091806,190163.92113740963,100021000000,E05000304,Wealdstone,www.acava.org,E09000015,12/27/2020
Harrow,Arts centres,Harrow Arts Centre ,171 Uxbridge Road,Hatch End,,E09000015,Harrow,51.60848854476744,-0.3638031612556714,513397.96916683693,191228.92084784468,200000319916,E05000291,Hatch End,https://harrowarts.com/,E09000015,12/27/2020
Harrow,Cinemas,Vue Harrow,,St Anns Road,,E09000015,Harrow,51.581467510914585,-0.3389527772588896,515186.968804012,188262.92177885486,200000313205,E05000288,Greenhill,,E09000015,12/27/2020
Harrow,Commercial galleries,Usurp,140 Vaughan Road,NA,NA,E09000015,Harrow,51.57904584466059,-0.3493466961511721,514472.928960828,187977.311810033,100021292207,E05000305,West Harrow,http://www.usurp.org.uk/exhibitions/#,E09000015,12/27/2020
Harrow,Community centres,Marsh Road Community Centre,Marsh Road,Harrow,NA,E09000015,Harrow,51.58909580188386,-0.37798825715468287,512463.6395258463,189050.47154992574,10070270312,E05000298,Pinner South,http://www.harrow.gov.uk/info/200244/housing_portal/1668/community_centre_halls,E09000015,12/27/2020
Harrow,Community centres,Pinner Hill Hall,Pinner Hill Road,Harrow,NA,E09000015,Harrow,51.60245257982744,-0.3975358368721322,511076.96992201207,190505.92116751085,200004435039,E05000297,Pinner,http://www.harrow.gov.uk/info/200244/housing_portal/1668/community_centre_halls,E09000015,12/27/2020
Harrow,Community centres,Kenmore Park Hall,Warneford Road,Harrow,NA,E09000015,Harrow,51.59323866927508,-0.29815640636471386,517982.96804443153,189636.92140516173,200000311926,E05000294,Kenton East,http://www.harrow.gov.uk/info/200244/housing_portal/1668/community_centre_halls,E09000015,12/27/2020
Harrow,Community centres,Bede Anandappa Centre,Binyon Crescent,Harrow,NA,E09000015,Harrow,51.615717210221646,-0.3324152876257249,515552.9687039101,192081.92074030894,200000306195,E05000303,Stanmore Park,http://www.harrow.gov.uk/info/200244/housing_portal/1668/community_centre_halls,E09000015,12/27/2020
Harrow,Community centres,Northolt Road Hall,Northolt Road,Harrow,NA,E09000015,Harrow,51.568279627526756,-0.34751422954205374,514626.9689597641,186782.9221821542,10094042923,E05000289,Harrow on the Hill,http://www.harrow.gov.uk/info/200244/housing_portal/1668/community_centre_halls,E09000015,12/27/2020
Harrow,Community centres,Savoy Court Community Centre,Station Road,Harrow,NA,E09000015,Harrow,51.58665549079659,-0.36064504271407644,513671.11917835905,188805.91162051994,10070262953,E05000293,Headstone South,,E09000015,12/27/2020
Harrow,Community centres,Grange Farm Community Centre,65 Osmond Close,Harrow,NA,E09000015,Harrow,51.56862101813689,-0.3506907399722219,514405.9690199921,186815.92217325786,100023029639,E05000289,Harrow on the Hill,http://www.harrow.gov.uk/info/200244/housing_portal/1668/community_centre_halls,E09000015,12/27/2020
Harrow,Community centres,Churchill Place Hall,Sandridge Close,Harrow,NA,E09000015,Harrow,51.59108507221874,-0.3354690467681397,515403.9687437018,189337.92148434598,100023026872,E05000296,Marlborough,http://www.harrow.gov.uk/info/200244/housing_portal/1668/community_centre_halls,E09000015,12/27/2020
Harrow,Community centres,Julie Cook Hall,Augustine Road,Harrow,NA,E09000015,Harrow,51.60267077330185,-0.35482838581255777,514033.9691183232,190595.92114316043,10000001851,E05000291,Hatch End,http://www.harrow.gov.uk/info/200244/housing_portal/1668/community_centre_halls,E09000015,12/27/2020
Harrow,Community centres,Beacon Centre Harrow,Scott Crescent,Harrow,NA,E09000015,Harrow,51.570823484238176,-0.36149128587194695,513651.9692248383,187044.0220849348,10000005511,E05000301,Roxbourne,,E09000015,12/27/2020
Harrow,Community centres,Brookside Hall,Brookside Hall, Brookside Close, Harrow,E09000015,Harrow,51.560674015792756,-0.37925511715377347,512445.96955050837,185887.92242192756,200000320386,E05000301,Roxbourne,http://www.harrow.gov.uk/info/200244/housing_portal/1668/community_centre_halls,E09000015,12/27/2020
Harrow,Creative workspaces,Usurp Art,Usurp Art,Usurp Art,140 Vaughan Road,E09000015,Harrow,51.57904584466059,-0.3493466961511721,514472.928960828,187977.311810033,100021292207,,,www.usurp.org.uk,E09000015,12/27/2020
Harrow,Dance performance venues,Pinner Village Hall,11 Chapel Lane,,,E09000015,Harrow,51.59325662585529,-0.384014347429379,512035.9695366061,189503.92131646478,200000320298,E05000298,Pinner South,https://www.pinnervillagehall.org.uk,E09000015,12/27/2020
Harrow,Dance performance venues,Harrow Arts Centre,171 Uxbridge Road,,,E09000015,Harrow,51.60848854476744,-0.3638031612556714,513397.96916683693,191228.92084784468,200000319916,E05000291,Hatch End,,E09000015,12/27/2020
Harrow,Dance performance venues,Candoco Dance Company,2 Wood Lane,,,E09000015,Harrow,51.63024680136543,-0.31023884034235716,517050.8881763439,193732.95016984182,10070269989,E05000286,Canons,http://www.candoco.co.uk,E09000015,12/27/2020
Harrow,Dance rehearsal studios,Pinner Village Hall,11 Chapel Lane,,,E09000015,Harrow,51.59325662585529,-0.384014347429379,512035.9695366061,189503.92131646478,200000320298,E05000298,Pinner South,https://www.pinnervillagehall.org.uk,E09000015,12/27/2020
Harrow,Dance rehearsal studios,Harrow Arts Centre,171 Uxbridge Road,,,E09000015,Harrow,51.60848854476744,-0.3638031612556714,513397.96916683693,191228.92084784468,200000319916,E05000291,Hatch End,,E09000015,12/27/2020
Harrow,Dance rehearsal studios,Candoco Dance Company,2 Wood Lane,,,E09000015,Harrow,51.63024680136543,-0.31023884034235716,517050.8881763439,193732.95016984182,10070269989,E05000286,Canons,http://www.candoco.co.uk,E09000015,12/27/2020
Harrow,Jewellery design,B.Stossel Limited,Unit 3 1st Floor North,Cavendish House,,E09000015,Harrow,51.60694635797605,-0.27557715390311877,519510.96762766776,191197.92098097235,10091970067,E05000287,Edgware,,E09000015,12/27/2020
Harrow,Jewellery design,Bentley & Co Jewellery Limited,Avondale House,262 Uxbridge Road,,E09000015,Harrow,51.608285067163145,-0.373096702308439,512754.9694629868,191191.9209798,10091797300,E05000291,Hatch End,,E09000015,12/27/2020
Harrow,Jewellery design,Clara Betsy Limited,Handel House,95 High Street,,E09000015,Harrow,51.6111229798577,-0.2801563093859092,519182.9677177975,191654.92085606686,200004436156,E05000286,Canons,,E09000015,12/27/2020
Harrow,Jewellery design,Dan Jewellers Limited,Kenton House,666 Kenton Road,,E09000015,Harrow,51.58584444236676,-0.2862351370456141,518827.96781823976,188833.92162402906,200004434880,E05000294,Kenton East,http://www.danjewellers.co.uk,E09000015,12/27/2020
Harrow,Jewellery design,Diamco Limited,28 Church Road,Stanmore,,E09000015,Harrow,51.6172424534053,-0.312049773699912,516958.968323787,192283.92068402888,10070266436,E05000303,Stanmore Park,http://www.diamco.co.uk,E09000015,12/27/2020
Harrow,Jewellery design,Griffin of London Limited,7 Jardine House,Harrovian Business Village,,E09000015,Harrow,51.578097656817015,-0.3416591343257621,515007.9688540304,187883.92188181216,10091093486,E05000288,Greenhill,,E09000015,12/27/2020
Harrow,Jewellery design,JAY Shree Krishna Limited,10 Station Parade,Northolt Road,,E09000015,Harrow,51.55854223458485,-0.3610817387530505,513710.96920926904,185678.922480101,100023543496,E05000302,Roxeth,,E09000015,12/27/2020
Harrow,Jewellery design,Kate Mclauchlan Gemstone Traders Limited,"Cavendish House, Unit 2",Ground Floor,,E09000015,Harrow,51.60694635797605,-0.27557715390311877,519510.96762766776,191197.92098097235,10091970067,E05000287,Edgware,http://www.katemc.net,E09000015,12/27/2020
Harrow,Jewellery design,Krystal London Limited,Unit 7,Phoenix Industrial Estate,,E09000015,Harrow,51.588649840516275,-0.3292640811830604,515839.9686265014,189076.92155633704,100023027326,E05000288,Greenhill,http://www.krystallondon.com,E09000015,12/27/2020
Harrow,Jewellery design,Millennium Jewellery Limited,Unit 3 1st Floor North,Cavendish House,,E09000015,Harrow,51.60694635797605,-0.27557715390311877,519510.96762766776,191197.92098097235,10091970067,E05000287,Edgware,,E09000015,12/27/2020
Harrow,Jewellery design,Orama London Ltd,79 College Road,Harrow,,E09000015,Harrow,51.579875238189835,-0.33700468277965834,515325.9687665395,188088.92182612204,10002293948,E05000288,Greenhill,,E09000015,12/27/2020
Harrow,Jewellery design,The Small Luxuries Trading Company Limited,35-37 Lowlands Road,Harrow,,E09000015,Harrow,51.57957925582795,-0.3395989899865729,515146.9688155118,188051.92183614697,10070270205,E05000288,Greenhill,,E09000015,12/27/2020
Harrow,Libraries,Roxeth,Northolt Road,Harrow,,E09000015,Harrow,51.5626149763032,-0.3565204536052971,514016.9691258691,186138.92235590582,200000307802,E05000302,Roxeth,,E09000015,12/27/2020
Harrow,Libraries,Gayton,St Johns Road,Harrow,,E09000015,Harrow,51.581683007730916,-0.3317656452636937,515684.36863279,188298.2217566137,10070263324,E05000288,Greenhill,,E09000015,12/27/2020
Harrow,Libraries,Pinner,Marsh Road,Pinner,,E09000015,Harrow,51.59139964226058,-0.3804714047767071,512285.94957147574,189302.85148582672,100023037203,E05000298,Pinner South,,E09000015,12/27/2020
Harrow,Libraries,Kenton,Kenton Lane,Harrow,,E09000015,Harrow,51.592645333945576,-0.3112442428550126,517077.9682900391,189549.9214294238,200000313248,E05000295,Kenton West,,E09000015,12/27/2020
Harrow,Libraries,Wealdstone,High Street,Harrow,,E09000015,Harrow,51.5941439993017,-0.3349384779612847,515432.9687362313,189678.9213911352,200004437046,E05000296,Marlborough,,E09000015,12/27/2020
Harrow,Libraries,Stanmore,Stanmore Hill,Stanmore,,E09000015,Harrow,51.61843241840572,-0.311630032331282,516984.9683166025,192416.92064822093,100023038856,E05000303,Stanmore Park,,E09000015,12/27/2020
Harrow,Museums and public galleries,Heath Robinson Museum,Pinner Memorial Park,West End Lane,Pinner,E09000015,Harrow,51.592473787133756,-0.38667053662735856,511853.90971047315,189412.80146833375,10002293329,E05000298,Pinner South,www.heathrobinsonmuseum.org,E09000015,12/27/2020
Harrow,Museums and public galleries,Harrow Museum and Heritage Centre,Headstone Manor,Pinner View,Â Harrow,E09000015,Harrow,51.59446394982795,-0.35506732734528634,514037.96911552106,189682.92139046936,10002293456,E05000292,Headstone North,http://www.harrow.gov.uk/info/200070/museums_and_galleries/190/harrow_museum,E09000015,12/27/2020
Harrow,Museums and public galleries,Bentley Priory Museum,Mansion House Drive Stanmore,NA,NA,E09000015,Harrow,51.62650831574604,-0.33305768376285394,515481.0987272122,193280.92041636136,10091091981,E05000303,Stanmore Park,www.bentleypriory.org,E09000015,12/27/2020
Harrow,Museums and public galleries,Headstone Manor & Museum (Harrow),Headstone Manor & Museum,Pinner View,Harrow,E09000015,Harrow,51.59406081618872,-0.35261308043182127,514208.96906845877,189641.92140181136,200000320113,E05000292,Headstone North,http://www.harrow.gov.uk/museum,E09000015,12/27/2020
Harrow,Music (office based businesses),Sound For Health Ltd,2 Church Avenue,Harrow,,E09000015,Harrow,51.58328309893319,-0.3748418829424714,512695.96947948425,188408.92173788563,100000000000,E05000300,Rayners Lane,www.soundforhealth.com,E09000015,12/27/2020
Harrow,Music (office based businesses),Disc Wizards Ltd,59a Palmerston Road,Harrow,,E09000015,Harrow,51.59310452933075,-0.33203130681598325,515636.9686808048,189567.9214215713,10002294589,E05000296,Marlborough,www.discwizards.com,E09000015,12/27/2020
Harrow,Music (office based businesses),Cadillac Music & Publishing Ltd,3 Scot Grove,Harrow,,E09000015,Harrow,51.60850154640244,-0.38485925422425593,511939.969684524,191197.92097979493,100000000000,E05000291,Hatch End,,E09000015,12/27/2020
Harrow,Music (office based businesses),Bronze Records Ltd,20 Sunningdale Close,Harrow,,E09000015,Harrow,51.61056581601043,-0.3205299858411684,516388.96847731725,191527.92088893615,100000000000,E05000303,Stanmore Park,,E09000015,12/27/2020
Harrow,Music (office based businesses),Waa Waa Records Ltd,34 Chenduit Way,Harrow,,E09000015,Harrow,51.61606386091697,-0.32770808025819814,515877.96861583146,192127.92072729545,100000000000,E05000303,Stanmore Park,,E09000015,12/27/2020
Harrow,Music (office based businesses),Independiente Music Publishing Ltd,20 Jesmond Way,Harrow,,E09000015,Harrow,51.618547795208286,-0.29164827208163935,518367.9679424994,192461.9206348717,100000000000,E05000286,Canons,,E09000015,12/27/2020
Harrow,Music (office based businesses),Mogul Publishing Ltd,7 Berry Hill,Harrow,,E09000015,Harrow,51.62162611738745,-0.2974120904886091,517960.9680521045,192794.9205450025,100000000000,E05000286,Canons,,E09000015,12/27/2020
Harrow,Music recording studios,Ten Eight Seven Mastering Ltd,21 Greenford Road,Harrow,,E09000015,Harrow,51.561009167886404,-0.3331776376149129,515638.96868229174,185996.92239532294,100000000000,E05000289,Harrow On The Hill,,E09000015,12/27/2020
Harrow,Music recording studios,Eastcote Studios Ltd,107 Hindes Road,Harrow,,E09000015,Harrow,51.584372957727965,-0.3428306714423929,514910.96887820534,188579.92169195507,100000000000,E05000288,Greenhill,www.eastcotestudios.co.uk,E09000015,12/27/2020
Harrow,Music venues (all),Castle,30 West Street,Harrow,,E09000015,Harrow,51.571995058482415,-0.33997656064301224,515139.96881937026,187207.92206552037,100000000000,E05000289,Harrow On The Hill,www.castle-harrow.co.uk,E09000015,12/27/2020
Harrow,Music venues (all),Queens Head,31 High Street,Harrow,,E09000015,Harrow,51.59437092021767,-0.38069744716736376,512262.96959801624,189632.9214029594,10010598042,E05000297,Pinner,www.queensheadpinner.co.uk,E09000015,12/27/2020
Harrow,Music venues (all),Harrow Arts Centre,Uxbridge Road Harrow,,,E09000015,Harrow,51.60848854583667,-0.36380315945382846,513397.9692889374,191228.92096954188,200000000000,E05000291,Hatch End,www.harrowarts.com,E09000015,12/27/2020
Harrow,Pubs,Royal Oak,86 St Anns Road,Harrow,,E09000015,Harrow,51.5816472627314,-0.3376760614638251,515274.9687799849,188284.92177292402,,E05000288,Greenhill,,E09000015,12/27/2020
Harrow,Pubs,Frankie & Benny's,St. George's Shopping Centre,Harrow,,E09000015,Harrow,51.581447697253324,-0.3388235984023515,515195.96880156535,188260.92177940108,,E05000288,Greenhill,,E09000015,12/27/2020
Harrow,Pubs,O'Neill's,335-339 Station Road,Harrow,,E09000015,Harrow,51.58069102176929,-0.33429029088268297,515511.96871578926,188183.92180028395,,E05000288,Greenhill,,E09000015,12/27/2020
Harrow,Pubs,Moon On The Hill,373-375 Station Road,Harrow,,E09000015,Harrow,51.57946787482193,-0.33427731478652556,515515.9687149392,188047.92183715134,,E05000288,Greenhill,,E09000015,12/27/2020
Harrow,Pubs,Trinity Bar,380 Station Road,Harrow,,E09000015,Harrow,51.57964046714977,-0.3337658481099998,515550.9687055121,188067.92183164437,,E05000288,Greenhill,,E09000015,12/27/2020
Harrow,Pubs,Junction,8 Gayton Road,Harrow,,E09000015,Harrow,51.57965002803809,-0.33253870140016056,515635.96868269495,188070.92183062824,,E05000288,Greenhill,,E09000015,12/27/2020
Harrow,Pubs,Harrow,269-271 Station Road,Harrow,,E09000015,Harrow,51.58310536224066,-0.3320657037103102,515659.9686757176,188455.92172609118,,E05000288,Greenhill,,E09000015,12/27/2020
Harrow,Pubs,Wards,38-40 Lowlands Road,Harrow,,E09000015,Harrow,51.579330455075535,-0.33981012393707155,515132.96881941636,188023.9218437526,,E05000288,Greenhill,,E09000015,12/27/2020
Harrow,Pubs,Kingsfield Arms,111 Bessborough Road,Harrow,,E09000015,Harrow,51.57495289550925,-0.34311579207339443,514914.96888060577,187531.92197765037,,E05000288,Greenhill,,E09000015,12/27/2020
Harrow,Pubs,Castle,30 West Street,Harrow,,E09000015,Harrow,51.57199036843833,-0.3396448302804874,515162.96881307807,187207.9220659085,,E05000289,Harrow on the Hill,,E09000015,12/27/2020
Harrow,Pubs,Rising Sun,138 Greenford Road,Sudbury Hill,,E09000015,Harrow,51.559664924597755,-0.3341356610178354,515575.968698849,185845.92243682093,,E05000289,Harrow on the Hill,,E09000015,12/27/2020
Harrow,Pubs,Maya Pub,"3 Shaftesbury Parade, Shaftesbury Ave",Harrow,,E09000015,Harrow,51.572219113454246,-0.3546154124450514,514124.969096592,187209.92206541885,,E05000289,Harrow on the Hill,,E09000015,12/27/2020
Harrow,Pubs,White Horse,50 Middle Road,Harrow,,E09000015,Harrow,51.570090188243476,-0.34581795431120604,514739.9689288925,186986.92212644988,,E05000289,Harrow on the Hill,,E09000015,12/27/2020
Harrow,Pubs,Salt Bar,1 Roxeth Hill,South Harrow,,E09000015,Harrow,51.56927560502387,-0.34544351386581873,514767.96892129607,186896.92215098836,,E05000289,Harrow on the Hill,,E09000015,12/27/2020
Harrow,Pubs,Star,2 South Hill Ave,South Harrow,Harrow,E09000015,Harrow,51.56547785722835,-0.3516269554290304,514348.9690355177,186464.92226860294,,E05000289,Harrow on the Hill,,E09000015,12/27/2020
Harrow,Pubs,Saras,"28 The Broadwalk, Pinner Road",North Harrow,,E09000015,Harrow,51.58689590993188,-0.36239964935015484,513548.9692482645,188829.92162376107,,E05000292,Headstone North,,E09000015,12/27/2020
Harrow,Pubs,Kohinur Restaurant & Bar,"14A Broadwalk,  Pinner Road",North Harrow,,E09000015,Harrow,51.58689590993188,-0.36239964935015484,513548.9692482645,188829.92162376107,,E05000292,Headstone North,,E09000015,12/27/2020
Harrow,Pubs,Three Wishes,"19-20 The Broadwalk, Pinner Road",North Harrow,Harrow,E09000015,Harrow,51.58689590993188,-0.36239964935015484,513548.9692482645,188829.92162376107,,E05000292,Headstone North,,E09000015,12/27/2020
Harrow,Pubs,McCafferty's Freehouse,"25 Broadwalk, Pinner Road",North Harrow,Harrow,E09000015,Harrow,51.58689590993188,-0.36239964935015484,513548.9692482645,188829.92162376107,,E05000292,Headstone North,,E09000015,12/27/2020
Harrow,Pubs,Blueroom Sports Venue,Headstone Lane,Headstone,,E09000015,Harrow,51.59797340833476,-0.36101918779583597,513616.96923184145,190063.9212865014,,E05000292,Headstone North,,E09000015,12/27/2020
Harrow,Pubs,Shawl,320 Northolt Road,South Harrow,,E09000015,Harrow,51.563047100377524,-0.35591333448752704,514057.96911469795,186187.9223427315,,E05000302,Roxeth,,E09000015,12/27/2020
Harrow,Pubs,O'Donnell's,399 Northolt Road,South Harrow,Harrow,E09000015,Harrow,51.56044192422699,-0.35802707933037126,513917.9691529488,185894.92242186755,,E05000302,Roxeth,,E09000015,12/27/2020
Harrow,Pubs,Horseshoe,326 Eastcote Lane,South Harrow,,E09000015,Harrow,51.56154931994183,-0.3742754604960634,512788.9694583014,185992.9223934408,,E05000301,Roxbourne,,E09000015,12/27/2020
Harrow,Pubs,Man of Aran,424-426 Alexandra Avenue,Rayners Lane,Harrow,E09000015,Harrow,51.573444434544506,-0.37089255735877596,512993.9694035975,187320.92203340703,,E05000300,Rayners Lane,,E09000015,12/27/2020
Harrow,Pubs,Club KTM,32 Railway Approach,Wealdstone,Harrow,E09000015,Harrow,51.590514427520596,-0.3326459398394142,515600.9686905752,189278.9215008581,,E05000288,Greenhill,,E09000015,12/27/2020
Harrow,Pubs,Barretts Freehouse,9 Masons Ave,Wealdstone,,E09000015,Harrow,51.59282867027883,-0.3341348065103332,515491.9687199535,189533.9214307872,,E05000296,Marlborough,,E09000015,12/27/2020
Harrow,Pubs,Shanakee,91 High Street,Wealdstone,,E09000015,Harrow,51.596901684361725,-0.335992652758371,515352.96875862824,189983.92130813986,,E05000304,Wealdstone,,E09000015,12/27/2020
Harrow,Pubs,Laurels,339 High Road,Harrow Weald,Harrow,E09000015,Harrow,51.603951512994385,-0.339778200338027,515072.96883517475,190761.9210969645,,E05000304,Wealdstone,,E09000015,12/27/2020
Harrow,Pubs,Cosy Bar,6 Weald Lane,Harrow Weald,Harrow,E09000015,Harrow,51.6035041608863,-0.33993893134603437,515062.96883796557,190711.921110567,,E05000304,Wealdstone,,E09000015,12/27/2020
Harrow,Pubs,Duck In The Pond,Kenton Lane,Harrow Weald,,E09000015,Harrow,51.60476145463556,-0.32779151630838144,515900.96860966604,190870.9210677605,,E05000290,Harrow Weald,,E09000015,12/27/2020
Harrow,Pubs,Leefe Robinson VC,375 Uxbridge Road,Harrow Weald,,E09000015,Harrow,51.61335259250222,-0.3324442380934915,515556.968702692,191818.92081078934,,E05000290,Harrow Weald,,E09000015,12/27/2020
Harrow,Pubs,Bombay Central,328 High Road,Harrow Weald,Harrow,E09000015,Harrow,51.60451325593777,-0.33944000045188677,515094.96882908803,190824.9210797965,,E05000290,Harrow Weald,,E09000015,12/27/2020
Harrow,Pubs,Hare,Brookshill,Harrow Weald,,E09000015,Harrow,51.620578821214714,-0.3429703187856964,514809.9689050898,192605.92059735965,,E05000290,Harrow Weald,,E09000015,12/27/2020
Harrow,Pubs,Case Is Altered,Old Redding,Harrow Weald,,E09000015,Harrow,51.62047565699498,-0.34777014934184985,514477.96899540036,192586.92060139886,,E05000290,Harrow Weald,,E09000015,12/27/2020
Harrow,Pubs,Grim's Dyke Hotel,Old Redding,Harrow Weald,,E09000015,Harrow,51.61937074445492,-0.34402555784395106,514739.9689241639,192469.92063387914,,E05000290,Harrow Weald,,E09000015,12/27/2020
Harrow,Pubs,TJ's Sports Bar,108 High Street,Wealdstone,Harrow,E09000015,Harrow,51.59634195780817,-0.3352045760001753,515408.9687432832,189922.9213246976,,E05000296,Marlborough,,E09000015,12/27/2020
Harrow,Pubs,Dalys,100 High Street,Wealdstone,Harrow,E09000015,Harrow,51.59634195780817,-0.3352045760001753,515408.9687432832,189922.9213246976,,E05000296,Marlborough,,E09000015,12/27/2020
Harrow,Pubs,Everest Lounge,60 Peel Road,Wealdstone,Harrow,E09000015,Harrow,51.59417080247299,-0.33176122594025576,515652.9686766616,189686.92138964363,,E05000296,Marlborough,,E09000015,12/27/2020
Harrow,Pubs,Beefeater,Kenton Road,Kenton,Harrow,E09000015,Harrow,51.58255624383159,-0.3169013989958716,516711.9683935421,188418.9217337164,,E05000295,Kenton West,,E09000015,12/27/2020
Harrow,Pubs,New Moon,25-26 Kenton Park Parade,Kenton,Harrow,E09000015,Harrow,51.58741935688542,-0.3036574638316134,517616.96814556984,188980.92158399418,,E05000295,Kenton West,,E09000015,12/27/2020
Harrow,Pubs,Funky Brownz,"Belmont Circle, Kenton Lane",Belmont,,E09000015,Harrow,51.601671407236864,-0.3185912968661744,516545.96843407006,190541.92115998996,,E05000285,Belmont,,E09000015,12/27/2020
Harrow,Pubs,Life Of Riley,7a Warwick Parade,Belmont,,E09000015,Harrow,51.60080908570955,-0.3180311393683133,516586.96842286526,190446.92118623218,,E05000295,Kenton West,,E09000015,12/27/2020
Harrow,Pubs,Circle Lounge,"12-13 Station Parade, Kenton Lane",Belmont,,E09000015,Harrow,51.60089732891435,-0.31916861806532576,516507.9684443605,190454.92118379415,,E05000295,Kenton West,,E09000015,12/27/2020
Harrow,Pubs,Badger Kelly's,"14 Station Parade, Kenton Lane",Belmont,,E09000015,Harrow,51.60089732891435,-0.31916861806532576,516507.9684443605,190454.92118379415,,E05000295,Kenton West,,E09000015,12/27/2020
Harrow,Pubs,Buckley's Bar,187 Streatfield Road,Queensbury,Harrow,E09000015,Harrow,51.59592923109955,-0.2958034220842983,518138.9680034198,189939.92132246972,,E05000299,Queensbury,,E09000015,12/27/2020
Harrow,Pubs,Frosty's,404 Kenton Road,Kenton,Harrow,E09000015,Harrow,51.58734190089448,-0.3001669507209185,517858.9680799105,188977.92158504255,,E05000294,Kenton East,,E09000015,12/27/2020
Harrow,Pubs,Oddfellows Arms,2 Waxwell Lane,Pinner,,E09000015,Harrow,51.59655462207712,-0.38450364241134005,511993.969671214,189869.92133913352,,E05000297,Pinner,,E09000015,12/27/2020
Harrow,Pubs,Beer Asylum,"No. 1 Red Lion Parade, Bridge Street",Pinner,,E09000015,Harrow,51.59450426040432,-0.3825407197759533,512134.96963251,189644.92140018393,,E05000297,Pinner,,E09000015,12/27/2020
Harrow,Pubs,Sync,Rickmansworth Road,Pinner,,E09000015,Harrow,51.59832810997036,-0.3971035319966617,511116.9699112264,190047.92129135155,,E05000297,Pinner,,E09000015,12/27/2020
Harrow,Pubs,Moon & Sixpence,250 Uxbridge Road,Hatch End,Pinner,E09000015,Harrow,51.60824272905901,-0.3732859626350651,512741.9694665428,191186.92098118807,,E05000291,Hatch End,,E09000015,12/27/2020
Harrow,Pubs,Village Inn,402-408 Rayners Lane,Rayners Lane,Pinner,E09000015,Harrow,51.576878878785486,-0.370841853156238,512988.96940431336,187702.9219302326,,E05000300,Rayners Lane,,E09000015,12/27/2020
Harrow,Pubs,Pinner Arms,Whittington Way,Pinner,,E09000015,Harrow,51.58560396234795,-0.380099914108584,512325.9695797614,188658.92166882125,,E05000298,Pinner South,,E09000015,12/27/2020
Harrow,Pubs,Queen's Head,31 High Street,Pinner,,E09000015,Harrow,51.59431019465816,-0.38085842111400636,512251.9696009586,189625.92140527145,,E05000297,Pinner,,E09000015,12/27/2020
Harrow,Pubs,Doolan's,897 Honeypot Lane,Canons Park,Stanmore,E09000015,Harrow,51.60622635241876,-0.3008188115140433,517764.9681038053,191076.92101347528,,E05000285,Belmont,,E09000015,12/27/2020
Harrow,Pubs,Purple Flame,433-437 Honeypot Lane,Queensbury,Stanmore,E09000015,Harrow,51.596314414649775,-0.29508151921103304,518187.96799027326,189983.92131039227,,E05000299,Queensbury,,E09000015,12/27/2020
Harrow,Pubs,Canons Bar,"Canons Hall, 1-17 Wemborough Road",Canons Park,,E09000015,Harrow,51.60650034485147,-0.30359577837241114,517571.96815608576,191102.92100633145,,E05000285,Belmont,,E09000015,12/27/2020
Harrow,Pubs,Everest Abercorn,78 Stanmore Hill,Stanmore,,E09000015,Harrow,51.62142507883981,-0.31588164466385454,516682.96839746996,192742.92056124815,,E05000303,Stanmore Park,,E09000015,12/27/2020
Harrow,Pubs,Spice Rack Lounge,35 Church Road,Stanmore,,E09000015,Harrow,51.61753421401583,-0.3123278433073908,516938.9683291167,192315.920675474,,E05000303,Stanmore Park,,E09000015,12/27/2020
Harrow,Pubs,Jamesons,"34 South Parade, Mollison Way",Queensbury,Edgware,E09000015,Harrow,51.59763894154663,-0.2786149069217612,519324.9676800262,190157.92126186844,,E05000287,Edgware,,E09000015,12/27/2020
Harrow,Pubs,Trilogy Bar & Restaurant,6-8 Whitchurch Parade  72-86 Whitchurch Lane,Edgware,,E09000015,Harrow,51.609358138392906,-0.2818404972736824,519070.96774724807,191455.9209104326,,E05000287,Edgware,,E09000015,12/27/2020
Harrow,Pubs,Moranos,12 Station Parade,Canons Park,Edgware,E09000015,Harrow,51.60765715707079,-0.29592745467710513,518099.96801167517,191243.92096776498,,E05000286,Canons,,E09000015,12/27/2020
Harrow,Pubs,Malibu Club,119 High Street (1st floor),Edgware,,E09000015,Harrow,51.61129796902347,-0.2804385549994465,519162.96772333013,191673.9208508295,,E05000286,Canons,,E09000015,12/27/2020
Harrow,Pubs,Zan Zi Bar,113 High Street,Edgware,,E09000015,Harrow,51.61129796902347,-0.2804385549994465,519162.96772333013,191673.9208508295,,E05000286,Canons,,E09000015,12/27/2020
Harrow,Pubs,Violet Bar & Grill,97-99 High Street,Edgware,,E09000015,Harrow,51.61129796902347,-0.2804385549994465,519162.96772333013,191673.9208508295,,E05000286,Canons,,E09000015,12/27/2020
Harrow,Skate Parks,Harrow,,,,E09000015,Harrow,51.59313108191719,-0.3256701117659069,516077.51030966884,189580.95059457485,0,E05000296,Marlborough,,E09000015,12/27/2020
Harrow,Theatres,Ryan Theatre,5 Yew Walk, Harrow,NA,E09000015,Harrow,51.57331898548574,-0.34130073258666443,515044.86472309433,187353.07070426823,100021000000,E05000289,Harrow on the Hill,https://www.tagvenue.com/rooms/middlesex/1654/harrow-school/ryan-theatre,E09000015,12/27/2020
Harrow,Theatres,Harrow Arts Centre,171 Uxbridge road, Hatch End,NA,E09000015,Harrow,51.60897493234853,-0.3640872283515281,513377.08857235685,191282.56843324238,200000000000,E05000291,Hatch End,https://harrowarts.com/,E09000015,12/27/2020
