BOROUGH,Cultural Venue Type,site_name,address1,address2,address3,borough_code,borough_name,latitude,longitude,easting,northing,os_addressbase_uprn,ward_2018_code,ward_2018_name,website,gss_code,runtime
Redbridge,Archives,Chartered Insurance Institute,42-48 High Road,South Woodford,,E09000026,Redbridge,51.593933325476364,0.02265403617830677,540201.461882228,190280.3211062107,100023000000,E05011252,South Woodford,https://www.cii.co.uk/,E09000026,12/27/2020
Redbridge,Artists workspaces,,Valentines Mansion,Emerson Road,,E09000026,Redbridge,51.57210607681065,0.06637715630924214,543298.4010406748,187937.8017437071,10034921528,E05011253,Valentines,http://www.valentinesmansion.com,E09000026,12/27/2020
Redbridge,Arts centres,Redbridge Drama Centre ,Churchfields,South Woodford ,,E09000026,Redbridge,51.598452895907776,0.022659872980982022,540187.9618855646,190782.9209709277,100022987836,E05011238,Churchfields,https://redbridgedramacentre.co.uk/RedbridgeDramaCentre.dll/Home,E09000026,12/27/2020
Redbridge,Cinemas,Cineworld Illford,,Clements Rd,,E09000026,Redbridge,51.55791129643244,0.07467943870572194,543918.4809515828,186375.6222409201,010034911858,E05011246,Ilford Town,,E09000026,12/27/2020
Redbridge,Cinemas,Odeon South Woodford,,60-64 High Road,,E09000026,Redbridge,51.594558889262295,0.023194376665902332,540236.9619946638,190350.92120930203,010034922603,E05011252,South Woodford,,E09000026,12/27/2020
Redbridge,Cinemas,Odeon South Woodford,,60-64 High Road,,E09000026,Redbridge,51.594558889262295,0.023194376665902332,540236.9619946638,190350.92120930203,010034922603,E05011252,South Woodford,,E09000026,12/27/2020
Redbridge,Community centres,Tiptree Community Hall | Clayhall,Tiptree Crescent,Redbridge,NA,E09000026,Redbridge,51.59061717118589,0.06893261519235545,543417.2210778247,190001.2512612383,10023771023,E05000504,Fullwell,,E09000026,12/27/2020
Redbridge,Community centres,Etteridge Hall,Ray Lodge Road,Redbridge,NA,E09000026,Redbridge,51.60784851691711,0.04260900061007182,541540.3316358535,191866.140769271,10090505113,E05000497,Bridge,,E09000026,12/27/2020
Redbridge,Community centres,The Parkside Community Centre,176 Goodmayes Lane,Redbridge,NA,E09000026,Redbridge,51.55257856688663,0.10711632178613148,546183.9603769376,185846.9224350595,100023050425,E05000508,Mayfield,,E09000026,12/27/2020
Redbridge,Community centres,Hainault Forest Community Association,100 Manford Way,Redbridge,NA,E09000026,Redbridge,51.607759085192384,0.10443810596917943,545821.6604273766,191977.62072092475,100023581966,E05000506,Hainault,http://www.hfca-uk.com/,E09000026,12/27/2020
Redbridge,Community centres,The Cranbrook Centre,Cranbrook Road,Redbridge,NA,E09000026,Redbridge,51.56695888153799,0.07121656950341947,543649.9610675927,187374.92201924068,10093036807,E05000502,Cranbrook,,E09000026,12/27/2020
Redbridge,Community centres,Loxford Community Corner,40 Loxford Lane,Redbridge,NA,E09000026,Redbridge,51.546969224888166,0.08159370866244157,544432.3708290056,185172.47260407108,100023043938,E05000507,Loxford,https://find.redbridge.gov.uk/kb5/redbridge/fsd/service.page?id=6FPrv9bGDvA&familychannel=1_5_2,E09000026,12/27/2020
Redbridge,Community centres,Wanstead House Community Association,21 The Green, London ,NA,E09000026,Redbridge,51.574226478932324,0.029170366641411517,540713.5918689657,188101.36182637332,100022259565,E05000515,Wanstead,,E09000026,12/27/2020
Redbridge,Dance performance venues,Kenneth More Theatre,Kenneth More Road,,,E09000026,Redbridge,51.55867744085837,0.07524058428155188,543954.9608607133,186461.9221443929,100023043000,E05011246,Ilford Town,www.kmtheatre.co.uk/hire-us/,E09000026,12/27/2020
Redbridge,Dance rehearsal studios,Isaac Newton Academy,1 Crickleford Place,,,E09000026,Redbridge,51.56180574371861,0.09160272554695643,545079.1605559792,186842.11204209185,10090503930,E05011246,Ilford Town,http://www.isaacnewtonacademy.org,E09000026,12/27/2020
Redbridge,Dance rehearsal studios,Kenneth More Theatre,Kenneth More Road,,,E09000026,Redbridge,51.55867744085837,0.07524058428155188,543954.9608607133,186461.9221443929,100023043000,E05011246,Ilford Town,www.kmtheatre.co.uk/hire-us/,E09000026,12/27/2020
Redbridge,Fashion and design,Pronto (London) UK Ltd,2 Washington Road,,,E09000026,Redbridge,51.59483931022773,0.016305372878083216,539758.9620020955,190368.92108244763,1.00022E+11,E05000499,Church End,http://www.pronto-digital.com/,E09000026,12/27/2020
Redbridge,Jewellery design,Antony M Specterman Limited,The Retreat,406a Roding Lane South,,E09000026,Redbridge,51.59097640175805,0.045701390312169035,541806.9615684786,189995.92130592995,10034923239,E05011239,Clayhall,,E09000026,12/27/2020
Redbridge,Jewellery design,Carlo Jewellers Ltd,Hunter House,109 Snakes Lane,,E09000026,Redbridge,51.607135107126815,0.03230319786087781,540828.9618331306,191766.92082415964,100023583604,E05011249,Monkhams,http://www.carlojewellers.com,E09000026,12/27/2020
Redbridge,Jewellery design,Carriage Jewellery Ltd,54 New Road,Seven Kings,,E09000026,Redbridge,51.561393174833576,0.09547640259263437,545348.9606058277,186803.9221744283,100023049478,E05011244,Goodmayes,,E09000026,12/27/2020
Redbridge,Jewellery design,Eman Ventures Ltd,"161, Ley Street, Ilford, Essex",161 Ley Street,,E09000026,Redbridge,51.56194626563873,0.07701970362007404,544067.9609521125,186828.92216724897,100023046417,E05011246,Ilford Town,,E09000026,12/27/2020
Redbridge,Jewellery design,KHU KHU Limited,Treviot House,186-192 High Road,,E09000026,Redbridge,51.55937300833629,0.07608015528297027,544010.9609673112,186540.92224522517,10023769904,E05011246,Ilford Town,,E09000026,12/27/2020
Redbridge,Jewellery design,Lol Jewellery Limited,117 Fencepiece Road,Ilford,,E09000026,Redbridge,51.60225507628274,0.08394194599012576,544419.9608587046,191324.92094409233,100023051842,E05011242,Fairlop,,E09000026,12/27/2020
Redbridge,Jewellery design,Muller & Carter Limited,Suite 4,Cranbook House,,E09000026,Redbridge,51.56034532675566,0.06940127598129377,543544.9610966875,186635.92221851408,10093036970,E05011253,Valentines,,E09000026,12/27/2020
Redbridge,Jewellery design,Multiple businesses ,Priestley House,Priestley Gardens,,E09000026,Redbridge,51.57304190510194,0.11683651929053036,546791.9602140735,188141.92181193375,10034923180,E05011251,Seven Kings,http://www.lancejames.co.uk,E09000026,12/27/2020
Redbridge,Jewellery design,Watches International Limited,Unit 17,Bourne Court,,E09000026,Redbridge,51.59085279577118,0.044021135436418043,541690.9616000048,189978.92131049396,100023583039,E05011239,Clayhall,,E09000026,12/27/2020
Redbridge,Libraries,Uphall School Library,Uphall Road,Ilford,,E09000026,Redbridge,51.54797663299112,0.07215754212497608,543774.9610327648,185265.9225917015,100023043973,E05011247,Loxford,,E09000026,12/27/2020
Redbridge,Libraries,Redbridge Central Library,Clements Road,Ilford,,E09000026,Redbridge,51.55806438964066,0.07532810131822455,543962.960980725,186393.92228495312,100023043071,E05011246,Ilford Town,,E09000026,12/27/2020
Redbridge,Libraries,Goodmayes Library,Goodmayes Lane,Ilford,,E09000026,Redbridge,51.55940253279035,0.10899118951349164,546292.0603260266,186609.50218294282,100023050383,E05011248,Mayfield,,E09000026,12/27/2020
Redbridge,Libraries,Aldersbrook Library,Park Road,,,E09000026,Redbridge,51.563364969947735,0.03300627008439247,541012.9617837111,186900.92214932176,100023583395,E05011254,Wanstead Park,,E09000026,12/27/2020
Redbridge,Libraries,Seven Kings Library,High Road,Ilford,,E09000026,Redbridge,51.56475899337209,0.09985873189720021,545641.9605251472,187186.92207185022,10034922466,E05011251,Seven Kings,,E09000026,12/27/2020
Redbridge,Libraries,Wanstead Library,Spratt Hall Road,,,E09000026,Redbridge,51.57589019959666,0.02529544072039497,540439.961938011,188278.92177566362,100022960264,E05011255,Wanstead Village,,E09000026,12/27/2020
Redbridge,Libraries,Keith Axon Library,Grove Road,Romford,,E09000026,Redbridge,51.57438378211518,0.12131806972919716,547098.1700917674,188300.13172967586,10090503264,E05011237,Chadwell,,E09000026,12/27/2020
Redbridge,Libraries,Gants Hill Library,Cranbrook Road,Ilford,,E09000026,Redbridge,51.57763552083947,0.0700710597468937,543536.9610972314,188559.92169720394,10034912233,E05011235,Barkingside,,E09000026,12/27/2020
Redbridge,Libraries,Clayhall Library,Claybury Broadway,Ilford,,E09000026,Redbridge,51.59029945323227,0.04945344826097137,542068.9614973095,189927.92132458632,100023051395,E05011239,Clayhall,,E09000026,12/27/2020
Redbridge,Libraries,Fullwell Cross Library,High Street,Ilford,,E09000026,Redbridge,51.5932023725643,0.08528887905285362,544541.960824758,190320.92121754307,10013585783,E05011242,Fairlop,,E09000026,12/27/2020
Redbridge,Libraries,South Woodford Library and Gym,High Road,,,E09000026,Redbridge,51.59713387618441,0.021970298008569054,540144.2620074219,190634.92113291193,10034922615,E05011238,Churchfields,,E09000026,12/27/2020
Redbridge,Libraries,Woodford Green Library,Snakes Lane West,Woodford Green,,E09000026,Redbridge,51.607592878282624,0.03235252698025453,540830.961832603,191817.92081025842,200001843478,E05011249,Monkhams,,E09000026,12/27/2020
Redbridge,Libraries,Hainault Library,Manford Way,Chigwell,,E09000026,Redbridge,51.608042910469216,0.1041566092527724,545801.2604696434,192008.6207126174,10034923013,E05011245,Hainault,,E09000026,12/27/2020
Redbridge,Museums and public galleries,Redbridge Museum,Redbridge Central Library,Clements Road,lford,E09000026,Redbridge,51.55806438964066,0.07532810131822455,543962.960980725,186393.92228495312,10091799736,E05011246,Ilford Town,redbridgefirstworldwar.org.uk,E09000026,12/27/2020
Redbridge,Music (office based businesses),Rnc Records Ltd,10 Abbotsford Road,Redbridge,,E09000026,Redbridge,51.5602044463039,0.1106138522756163,546401.9603205633,186701.9222014667,100000000000,E05011244,Goodmayes,,E09000026,12/27/2020
Redbridge,Music (office based businesses),Erra Records Ltd,45 Kenwood Gardens,Redbridge,,E09000026,Redbridge,51.58150077978048,0.06965496919949048,543495.9611098549,188988.92158012575,100000000000,E05011235,Barkingside,,E09000026,12/27/2020
Redbridge,Music (office based businesses),Fidelity Records Ltd,69 Campbell Avenue,Redbridge,,E09000026,Redbridge,51.58169394769622,0.07957994951728517,544182.9609209187,189029.92157097388,100000000000,E05011235,Barkingside,,E09000026,12/27/2020
Redbridge,Music (office based businesses),Basildon Studios Ltd,5 Chigwell Road,Redbridge,,E09000026,Redbridge,51.589726806783155,0.03117968214979319,540804.9618402494,189828.92135008977,100000000000,E05011252,South Woodford,,E09000026,12/27/2020
Redbridge,Music (office based businesses),Gold Coast Army Records Ltd,27 Kingsley Road,Redbridge,,E09000026,Redbridge,51.59824237106689,0.08253086288524038,544334.9608819106,190875.92106529634,100000000000,E05011242,Fairlop,,E09000026,12/27/2020
Redbridge,Music venues (all),O'neills,Station Road Redbridge,,,E09000026,Redbridge,51.55886347429823,0.07081999598630666,543647.9610683515,186473.92226183641,10034926974,E05011246,Ilford Town,www.oneills.co.uk/national-search/london/ilford,E09000026,12/27/2020
Redbridge,Music venues (all),Prince Of Wales,63 Green Lane,Redbridge,,E09000026,Redbridge,51.559124660237124,0.08602346863630529,544700.9607792466,186532.92224731634,100000000000,E05011246,Ilford Town,www.princeofwales-ilford.co.uk,E09000026,12/27/2020
Redbridge,Music venues (all),Nightingale,51 Nightingale Lane,Redbridge,,E09000026,Redbridge,51.58162677087279,0.028451458606049387,540640.961882757,188922.9215974412,100000000000,E05011255,Wanstead Village,www.thenightingalewanstead.com,E09000026,12/27/2020
Redbridge,Music venues (all),The Duke,79 Nightingale Lane,Redbridge,,E09000026,Redbridge,51.58264462562129,0.027832785587431734,540594.9618951421,189034.92156673333,100000000000,E05011255,Wanstead Village,www.thedukewanstead.com,E09000026,12/27/2020
Redbridge,Music venues (all),Railway Bell,87 George Lane,Redbridge,,E09000026,Redbridge,51.59202162607217,0.027961456096547044,540574.9619035054,190077.92128250783,10034917375,E05011252,South Woodford,,E09000026,12/27/2020
Redbridge,Music venues (all),George,70 High Road,Redbridge,,E09000026,Redbridge,51.59476726756018,0.022582792916573502,540193.962006399,190372.9212027816,10034932897,E05011252,South Woodford,www.craft-pubs.co.uk/georgesouthwoodford,E09000026,12/27/2020
Redbridge,Music venues (all),Crown & Crooked Billet,13 Cross Road,Redbridge,,E09000026,Redbridge,51.60732563023623,0.06109526111415977,542821.9612916659,191843.92080263986,100000000000,E05011236,Bridge,www.classicinns.co.uk/thecrownandcrookedbilletwoodfordgreen,E09000026,12/27/2020
Redbridge,Pubs,Eagle,73 Hollybush Hill,Wanstead,Snaresbrook,E09000026,Redbridge,51.58314501740236,0.020724545686585043,540100.9620298337,189076.9215577211,,E05011255,Wanstead Village,,E09000026,12/27/2020
Redbridge,Pubs,Cuckfield,31 High Street,Wanstead,London,E09000026,Redbridge,51.57965560104021,0.024394657827510432,540365.9619577711,188695.92166126403,,E05011255,Wanstead Village,,E09000026,12/27/2020
Redbridge,Pubs,Duke,79 Nightingale Lane,Wanstead,London,E09000026,Redbridge,51.58222655186922,0.028088432143326316,540613.9618899265,188988.9215799445,,E05011255,Wanstead Village,,E09000026,12/27/2020
Redbridge,Pubs,Nightingale on the Green,51 Nightingale Lane,Wanstead,London,E09000026,Redbridge,51.58222655186922,0.028088432143326316,540613.9618899265,188988.9215799445,,E05011255,Wanstead Village,,E09000026,12/27/2020
Redbridge,Pubs,Luppolo,36-38 High Street Wanstead,Wanstead,London,E09000026,Redbridge,51.576232445944505,0.027345545984796372,540580.9618997731,188320.92176401964,,E05011255,Wanstead Village,,E09000026,12/27/2020
Redbridge,Pubs,George,159 High Street Wanstead,Wanstead,London,E09000026,Redbridge,51.57654569881996,0.027951188400465173,540621.9618886187,188356.92175407312,,E05011255,Wanstead Village,,E09000026,12/27/2020
Redbridge,Pubs,Manor House,129 High St,Wanstead,,E09000026,Redbridge,51.57654569881996,0.027951188400465173,540621.9618886187,188356.92175407312,,E05011255,Wanstead Village,,E09000026,12/27/2020
Redbridge,Pubs,William The Conqueror,628-630 Romford Road,Manor Park,London,E09000026,Redbridge,51.562566549394745,0.03703928041878503,541294.9617073007,186819.9221707703,,E05011254,Wanstead Park,,E09000026,12/27/2020
Redbridge,Pubs,Lizard Lounge,186-188 George Lane,South Woodford,London,E09000026,Redbridge,51.59383312439348,0.02460591947301663,540336.9619676445,190272.92123032216,,E05011252,South Woodford,,E09000026,12/27/2020
Redbridge,Pubs,Slug & Lettuce,184 George Lane,South Woodford,London,E09000026,Redbridge,51.59383312439348,0.02460591947301663,540336.9619676445,190272.92123032216,,E05011252,South Woodford,,E09000026,12/27/2020
Redbridge,Pubs,Railway Bell,87 George Lane,South Woodford,London,E09000026,Redbridge,51.591792247715134,0.02822555023327929,540593.9618981809,190052.9212899215,,E05011252,South Woodford,,E09000026,12/27/2020
Redbridge,Pubs,George,70-74 High Road,South Woodford,London,E09000026,Redbridge,51.59339820806025,0.022709678015455,540206.9620028769,190220.92124429822,,E05011252,South Woodford,,E09000026,12/27/2020
Redbridge,Pubs,Frankie & Benny's,"Unit 1b, Iscene Leisure, Clements Road",Ilford,Ilford,E09000026,Redbridge,51.557636530725276,0.07409680359533369,543878.9610040777,186343.92229835124,,E05011246,Ilford Town,,E09000026,12/27/2020
Redbridge,Pubs,General Havelock,229 High Road / Hainault Street,Ilford,,E09000026,Redbridge,51.559922248106254,0.07705735785993001,544076.9609491128,186603.92222829862,,E05011246,Ilford Town,,E09000026,12/27/2020
Redbridge,Pubs,Prince Of Wales,63 Green Lane / Connaught Road,Ilford,,E09000026,Redbridge,51.55914983239857,0.08663055393979668,544742.9607678883,186536.9222468802,,E05011246,Ilford Town,,E09000026,12/27/2020
Redbridge,Pubs,Papermakers Arms,57 Roden Street,Ilford,,E09000026,Redbridge,51.55666829979939,0.06985474497552091,543587.9610844838,186227.92232947127,,E05011247,Loxford,,E09000026,12/27/2020
Redbridge,Pubs,Champs Sports Bar & Grill,19/21 Chapel Road / Clements Lane,Ilford,,E09000026,Redbridge,51.55783751834327,0.07035503706035962,543618.9610760923,186358.92229374917,,E05011246,Ilford Town,,E09000026,12/27/2020
Redbridge,Pubs,O'Neill's,Station Road,Ilford,,E09000026,Redbridge,51.55925145509395,0.07125599847266917,543676.9610600937,186517.92225063808,,E05011246,Ilford Town,,E09000026,12/27/2020
Redbridge,Pubs,Great Spoon Of Ilford,114/116 Cranbrook Road,Ilford,,E09000026,Redbridge,51.56224160374936,0.06844852951971547,543472.9611164255,186844.92216208094,,E05011253,Valentines,,E09000026,12/27/2020
Redbridge,Pubs,Jono's Bar,37 Cranbrook Road,Ilford,,E09000026,Redbridge,51.5597554198048,0.06970632894705638,543567.9610903489,186570.9222360857,,E05011253,Valentines,,E09000026,12/27/2020
Redbridge,Pubs,Sydney's,545 Cranbrook Road,Gants Hill,Ilford,E09000026,Redbridge,51.575840249160905,0.06580413559880582,543246.9611764485,188351.9217527273,,E05011241,Cranbrook,,E09000026,12/27/2020
Redbridge,Pubs,Visage 80s Bar,442-444 Cranbrook Road,Gants Hill,Ilford,E09000026,Redbridge,51.57673552902277,0.06756220366177168,543365.9611439928,188454.921725162,,E05011235,Barkingside,,E09000026,12/27/2020
Redbridge,Pubs,King George V,645 Cranbrook Road,Gants Hill,Ilford,E09000026,Redbridge,51.57833214587689,0.07085323806889834,543588.9610831367,188638.92167593248,,E05011235,Barkingside,,E09000026,12/27/2020
Redbridge,Pubs,Miller & Carter Steakhouse Dick Turpin,Aldborough Road North,Aldborough Hatch,Ilford,E09000026,Redbridge,51.58606510118647,0.10274639271913825,545773.9604898306,189561.92142529157,,E05011234,Aldborough,,E09000026,12/27/2020
Redbridge,Pubs,O'Grady's Irish Bar,699 High Road,Seven Kings,Ilford,E09000026,Redbridge,51.564997101933,0.10112501565837438,545728.9605015736,187215.92206405522,,E05011251,Seven Kings,,E09000026,12/27/2020
Redbridge,Pubs,Ash Grove,271 Green Lane / New Road,Seven Kings,Ilford,E09000026,Redbridge,51.56036501580025,0.09514060853951918,545328.960611578,186688.92220531445,,E05011244,Goodmayes,,E09000026,12/27/2020
Redbridge,Pubs,Bridge House,62/64 Goodmayes Road / Ashgrove Road,Goodmayes,Ilford,E09000026,Redbridge,51.56575078436012,0.11023570621960616,546357.9603320078,187317.92203642352,,E05011244,Goodmayes,,E09000026,12/27/2020
Redbridge,Pubs,Red House [Beefeater],Redbridge Lane East,Redbridge,Ilford,E09000026,Redbridge,51.576972836948535,0.044783900616814365,541786.9615712342,188436.92173242127,,E05011239,Clayhall,,E09000026,12/27/2020
Redbridge,Pubs,Beehive [Harvester],Beehive Lane,Gants Hill,Ilford,E09000026,Redbridge,51.57700057934203,0.05965072396566293,542816.9612929471,188468.9217218305,,E05011235,Barkingside,,E09000026,12/27/2020
Redbridge,Pubs,Unicorn,225 Clayhall Avenue / Caterham Avenue,Clayhall,Woodford Green,E09000026,Redbridge,51.59174245012909,0.06410017296333385,543078.9612202978,190116.9212737583,,E05011243,Fullwell,,E09000026,12/27/2020
Redbridge,Pubs,New Fairlop Oak,Fencepiece Road,Barkingside,Fulwell Cross,E09000026,Redbridge,51.59407986427623,0.08499700660622826,544518.9608311419,190417.92119109788,,E05011242,Fairlop,,E09000026,12/27/2020
Redbridge,Pubs,Old Maypole,105 Fencepiece Road / Cleeves Walk,Barkingside,Ilford,E09000026,Redbridge,51.60129055719025,0.0840710643974579,544431.9608556337,191217.9209729685,,E05011242,Fairlop,,E09000026,12/27/2020
Redbridge,Pubs,Fairlop Waters (Dalton's & S/D),Forest Road,Barkingside,Ilford,E09000026,Redbridge,51.595026235626804,0.09799151645924724,545415.9605879602,190548.92115536996,,E05011234,Aldborough,,E09000026,12/27/2020
Redbridge,Pubs,Forester,107 Burrow Road,Hainault,Chigwell,E09000026,Redbridge,51.612490928679826,0.1120133614310306,546330.9603383081,192518.92062113155,,E05011245,Hainault,,E09000026,12/27/2020
Redbridge,Pubs,Travellers Friend,496-498 High Road,Woodford Green,Woodford Wells,E09000026,Redbridge,51.615638784063655,0.025735016144489326,540347.9619646716,192699.9205710906,,E05011249,Monkhams,,E09000026,12/27/2020
Redbridge,Pubs,Horse & Well,566/568 High Road,Woodford Green,Woodford Wells,E09000026,Redbridge,51.61735311045053,0.026966987089296787,540427.9619433752,192892.92051844893,,E05011249,Monkhams,,E09000026,12/27/2020
Redbridge,Pubs,Rose & Crown,31 Mill Lane,Woodford Green,,E09000026,Redbridge,51.60969639533483,0.02093536999328743,540033.9620476464,192029.9207546651,,E05011249,Monkhams,,E09000026,12/27/2020
Redbridge,Pubs,Miller & Carter Woodford Green,393-395 High Road,Woodford Green,,E09000026,Redbridge,51.60939564023493,0.021167543880400895,540050.9620429666,191996.92076362472,,E05011249,Monkhams,,E09000026,12/27/2020
Redbridge,Pubs,Railway Tavern,126 Snakes Lane East / West Grove,Woodford Green,,E09000026,Redbridge,51.60785070444914,0.03874761323180163,541272.9617130705,191858.9207999913,,E05011236,Bridge,,E09000026,12/27/2020
Redbridge,Pubs,La Sala,692-694 Chigwell Road,Woodford Bridge,Woodford Green,E09000026,Redbridge,51.60666077542859,0.0554182719704701,542430.9613984784,191758.92082722305,,E05011236,Bridge,,E09000026,12/27/2020
Redbridge,Pubs,Crown & Crooked Billet,13 Cross Road,Woodford Bridge,Woodford Green,E09000026,Redbridge,51.607325630241704,0.06109526111161019,542821.9612914725,191843.92080324347,,E05011236,Bridge,,E09000026,12/27/2020
Redbridge,Pubs,Toby Carvery Woodford Green,1 Southend Road / Roding Lane North,Clayhall,Woodford Green,E09000026,Redbridge,51.59146914942102,0.04735494187921611,541919.9615376834,190053.92129019683,,E05011243,Fullwell,,E09000026,12/27/2020
Redbridge,Pubs,Cricketers,299-301 High Road,Woodford Green,,E09000026,Redbridge,51.60192530011794,0.01892965229026468,539918.9620803625,191161.92099116417,,E05011238,Churchfields,,E09000026,12/27/2020
Redbridge,Pubs,Eva Hart,1128 High Road,Chadwell Heath,Romford,E09000026,Redbridge,51.570519786283654,0.12999575294722945,547711.9599632209,187887.92188092,,E05011237,Chadwell,,E09000026,12/27/2020
Redbridge,Pubs,Greyhound [Harvester],900 High Road,Chadwell Heath,Romford,E09000026,Redbridge,51.56857020227942,0.1204528800173844,547056.9601420838,187651.92194548208,,E05011237,Chadwell,,E09000026,12/27/2020
Redbridge,Textile design,Cover-Tex Ltd,56-58 Fowler Road,,,E09000026,Redbridge,51.608879246494666,0.12478656294633587,547226.9600946486,192142.92072408058,100023052049,E05000506,Hainault,https://www.covertexltd.co.uk,E09000026,12/27/2020
Redbridge,Textile design,Pronto (London) UK Ltd,2 Washington Road,,,E09000026,Redbridge,51.59483931129462,0.016305374688220697,539758.9621241959,190368.92120454862,100022260472,E05000499,Church End,http://www.pronto-digital.com/,E09000026,12/27/2020
Redbridge,Theatres,Redbridge Drama Centre,Churchfields, South Woodford,NA,E09000026,Redbridge,51.598789500602805,0.025399643869176123,540376.6672342086,190825.60555913503,100023000000,E05011238,Churchfields,http://www.redbridgedramacentre.co.uk/,E09000026,12/27/2020
Redbridge,Theatres,Kenneth More Theatre,Oakfield Road, Ilford,NA,E09000026,Redbridge,51.560525556756566,0.07101540572494508,543656.2735437306,186659.13179037726,100023000000,E05011246,Ilford Town,https://www.kmtheatre.co.uk/,E09000026,12/27/2020
