BOROUGH,Cultural Venue Type,site_name,address1,address2,address3,borough_code,borough_name,latitude,longitude,easting,northing,os_addressbase_uprn,ward_2018_code,ward_2018_name,website,gss_code,runtime
Sutton,Archives,London Borough of Sutton: Archives & Local Studies,Level 2A Central Library ,St Nicholas Way,,E09000029,Sutton,51.36207338892009,-0.19515461550298518,525750.9658101378,164101.92822253157,5870113864,E05000564,Sutton Central,https://arena.yourlondonlibrary.net/web/sutton/sutton-archives,E09000029,12/27/2020
Sutton,Artists workspaces,Oaks Park,Croydon Lane,Carshalton,,E09000029,Sutton,51.33383365012189,-0.17412733302105873,527292.9653906933,160997.92906829045,768018029,E05000559,Carshalton South and Clockhouse,www.acme.org.uk,E09000029,12/27/2020
Sutton,Community centres,Wandle Valley Community Centre,2 Budge Lane,Sutton,NA,E09000029,Sutton,51.385706961837315,-0.16451817394444987,527817.9653705836,166782.9276153033,5870115697,E05000571,Wandle Valley,https://www.lqgroup.org.uk/services-for-residents/have-your-say/resident-involvement/landq-community-centres/community-cen,E09000029,12/27/2020
Sutton,Community centres,Elmcroft Community Centre,London Road,Sutton,NA,E09000029,Sutton,51.37306268655786,-0.2251971758833262,523629.9665089442,165272.92802616145,5870012360,E05000561,Nonsuch,http://www.elmcroftcc.org.uk/,E09000029,12/27/2020
Sutton,Community centres,Shanklin Community & Children's Centre,Rookley Close,Sutton,NA,E09000029,Sutton,51.347609320995126,-0.19608193149502587,525725.9659404473,162491.9287818208,5870029716,E05000557,Belmont,,E09000029,12/27/2020
Sutton,Community centres,Thomas Wall Centre,52 Benhill Avenue,Sutton,NA,E09000029,Sutton,51.36670882958919,-0.19076316274996302,526043.9658538391,164624.92820076586,5870047224,E05000564,Sutton Central,http://thethomaswallcentre.co.uk/index4.html/index-4.html,E09000029,12/27/2020
Sutton,Community centres,Hillcrest Halls,Fryston Avenue,Sutton,NA,E09000029,Sutton,51.325939647406535,-0.15415955158304243,528705.965128325,160154.92941795566,5870074245,E05000559,Carshalton South and Clockhouse,http://www.spanglefish.com/clockhousecommunityassociation/,E09000029,12/27/2020
Sutton,Community centres,RIverside Community Centre,113 Culvers Avenue,Sutton,NA,E09000029,Sutton,51.3791532051687,-0.16463671677671232,527827.9653693683,166053.92781278526,5870121708,E05000568,The Wrythe,http://riversidecentre.org/,E09000029,12/27/2020
Sutton,Community centres,Granfers Community Centre,73-79 Oakhill Road,Sutton,NA,E09000029,Sutton,51.37060241126667,-0.19132807685832987,525993.9658682548,165056.92808398872,5870040510,E05000565,Sutton North,https://www.suttoncvs.org.uk/,E09000029,12/27/2020
Sutton,Community centres,Rosehill Community Centre,Rosehill Community Centre, Rosehill Recreation Ground, Rose Hill,E09000029,Sutton,51.378310925667435,-0.1943580888376363,525761.9659318917,165908.92785385507,5870117675,E05000565,Sutton North,,E09000029,12/27/2020
Sutton,Community centres,Seven Acres Community Hub,Seven Acres Community Hub, 41-43 Seven Acres, Carshalton,E09000029,Sutton,51.375375025127134,-0.17376827392862682,527202.9655409856,165617.92793060694,5870066625,E05000568,The Wrythe,https://www.suttonhousingpartnership.org.uk/news-events/cuppa-with-a-copper-at-seven-acres-community-hub--763,E09000029,12/27/2020
Sutton,Community centres,Hill House,Hill House Community Centre,Hill House,Bishopsford Road,E09000029,Sutton,51.38707004883963,-0.18332025257925422,526505.9657267663,166901.92758488364,5870054793,E05000562,St. Helier,,E09000029,12/27/2020
Sutton,Dance rehearsal studios,The Chatsworth Studio,60 Upper Mulgrave Road,,,E09000029,Sutton,51.355140005379475,-0.21217208303627383,524585.06612709,163301.89843955555,5870018940,E05000560,Cheam,http://www.chatsworthstudio.com,E09000029,12/27/2020
Sutton,Dance rehearsal studios,Sutton Dance Academy,Rose Hill Park,,,E09000029,Sutton,51.37797068114996,-0.19562162951491355,525674.9658334157,165868.92774282233,5870040509,E05000565,Sutton North,https://www.better.org.uk,E09000029,12/27/2020
Sutton,Dance rehearsal studios,Wallington High School for Girls in Wallington,129 Woodcote Rd,,,E09000029,Sutton,51.34799637457084,-0.14883639339492902,529014.9649222963,162616.92862529133,5870087159,E05000570,Wallington South,http://www.wallingtongirls.sutton.sch.uk,E09000029,12/27/2020
Sutton,Jewellery design,Mix-Fits Ltd,Suite 10,Fitzroy House,,E09000029,Sutton,51.37925241291764,-0.24388323840452192,522312.9668671795,165929.92784822697,5870002893,E05000561,Nonsuch,http://www.mix-fits.org,E09000029,12/27/2020
Sutton,Libraries,Library @ the Phoenix Centre,Mollison Drive,Wallington,,E09000029,Sutton,51.35321724607274,-0.1332588469893319,530084.9647557805,163224.92858171667,5870113095,E05000556,Beddington South,,E09000029,12/27/2020
Sutton,Libraries,Wallington Library,Shotfield,Wallington,,E09000029,Sutton,51.357847606031704,-0.1507948795061701,528850.9650905905,163708.92845009896,5870076858,E05000570,Wallington South,,E09000029,12/27/2020
Sutton,Libraries,Cheam Library,Church Road,Cheam,,E09000029,Sutton,51.360101195676606,-0.21669173092116367,524256.96633666893,163845.92841352138,5870018019,E05000560,Cheam,,E09000029,12/27/2020
Sutton,Libraries,Sutton Central Library,St Nicholas Way,Sutton,,E09000029,Sutton,51.36207338999041,-0.19515461370701015,525750.9659322376,164101.92834462988,5870113864,E05000564,Sutton Central,,E09000029,12/27/2020
Sutton,Libraries,Library @ Westcroft Centre,Westcroft Road,Carshalton,,E09000029,Sutton,51.36795395710612,-0.15811688654644,528312.9652386562,164819.92815183848,5870122731,E05000569,Wallington North,,E09000029,12/27/2020
Sutton,Libraries,Worcester Park Library,Windsor Road,Worcester Park,,E09000029,Sutton,51.37805466953304,-0.24137124603141485,522490.9668195736,165800.92788285785,5870109125,E05000561,Nonsuch,,E09000029,12/27/2020
Sutton,Libraries,Library @ The Life Centre,Alcorn Close,Sutton,,E09000029,Sutton,51.37890231066054,-0.20182154055659474,525240.9660735055,165961.92784000194,5870120544,E05000563,Stonecot,,E09000029,12/27/2020
Sutton,Libraries,The Circle Library,Green Wrythe Lane,Carshalton,,E09000029,Sutton,51.38558359428003,-0.17446849179503934,527125.9655590327,166751.92762424907,5870120398,E05000571,Wandle Valley,,E09000029,12/27/2020
Sutton,Museums and public galleries,Whitehall Historic House,1 Malden Road,Cheam,Surrey,E09000029,Sutton,51.35938066170903,-0.2172080653825291,524222.9663454164,163764.92843537853,5870019263,E05000560,Cheam,https://whitehallmuseum.wordpress.com/,E09000029,12/27/2020
Sutton,Museums and public galleries,Little Holland House,40 Beeches Ave,Carshalton,NA,E09000029,Sutton,51.35528014227603,-0.17057472350438743,527480.9654644713,163388.92853983433,5870060822,E05000559,Carshalton South and Clockhouse,http://www.sutton.gov.uk/,E09000029,12/27/2020
Sutton,Museums and public galleries,Honeywood Museum,Honeywood Walk,Carshalton,Surrey,E09000029,Sutton,51.36513123214742,-0.16506809623882993,527836.9653672965,164493.9282405466,5870115967,E05000558,Carshalton Central,http://www.friendsofhoneywood.co.uk/,E09000029,12/27/2020
Sutton,Music (office based businesses),Pierreplay Records Ltd,199 Autumn Drive,Sutton,,E09000029,Sutton,51.349391547868635,-0.1967730488303847,525672.965955005,162688.92872745654,5870028472,E05000557,Belmont,,E09000029,12/27/2020
Sutton,Music (office based businesses),Blue Flowers Publishing Ltd,19 Jubilee Road,Sutton,,E09000029,Sutton,51.35681984204171,-0.22148706067830484,523931.96642582,163472.92851412884,5870111201,E05000560,Cheam,,E09000029,12/27/2020
Sutton,Music (office based businesses),More Time Records Ltd,74 Tabor Gardens,Sutton,,E09000029,Sutton,51.35728893243699,-0.21272183627381613,524540.9662600541,163539.9284965656,5870019429,E05000560,Cheam,,E09000029,12/27/2020
Sutton,Music (office based businesses),Lontano Records Ltd,20 Onslow Gardens,Sutton,,E09000029,Sutton,51.35662331958489,-0.1472965582624282,529097.9650232946,163578.92848514294,5870090187,E05000570,Wallington South,,E09000029,12/27/2020
Sutton,Music (office based businesses),Heads Up Music Ltd,58 High Street,Sutton,,E09000029,Sutton,51.35813524912407,-0.21455611937914698,524410.9662947755,163630.92847163812,5870018046,E05000560,Cheam,,E09000029,12/27/2020
Sutton,Music (office based businesses),Rhirhi Records Ltd,12 Osborne Place,Sutton,,E09000029,Sutton,51.36261651495367,-0.18259292431673532,526623.9656954212,164183.9283210265,5870049420,E05000564,Sutton Central,,E09000029,12/27/2020
Sutton,Music (office based businesses),Ncs Entertainment Ltd,22 Charminster Road,Sutton,,E09000029,Sutton,51.381802925744516,-0.2245575737051114,523650.966504188,166245.92776125704,5870015496,E05000572,Worcester Park,,E09000029,12/27/2020
Sutton,Music recording studios,Starcity Studios,2 Sutton Ct Rd Sutton,,,E09000029,Sutton,51.36052512836779,-0.19097809208084027,526045.9658517337,163936.9283888677,0,E05000564,Sutton Central,www.starcitystudios.co.uk,E09000029,12/27/2020
Sutton,Music recording studios,Soundbox Studios,Pandora House 41-45 Lind Rd,Sutton,,E09000029,Sutton,51.36471946420159,-0.18598608064403688,526381.9657614613,164411.9282580737,0,E05000564,Sutton Central,,E09000029,12/27/2020
Sutton,Music rehearsal studios,Crunch Studios,Crunch Studio 39b,High Street,Sutton,E09000029,Sutton,51.36594493528475,-0.1596053333572547,528214.965265154,164593.9282127004,5870119991,E05000558,Carshalton Central,http://www.crunchstudios.co.uk/,E09000029,12/27/2020
Sutton,Music rehearsal studios,Music Studios London,43192 Rosehill Court Parade,St. Helier Avenue,Sutton,E09000029,Sutton,51.38563538094647,-0.1893989620273229,526086.9658418698,166731.92763004586,5870054132,E05000562,St. Helier,www.musicstudioslondon.com,E09000029,12/27/2020
Sutton,Music venues (all),The Sound Lounge,216-220 High Street,,,,,51.36654935595027,-0.19421874484373192,525803.8627152424,164601.26359956502,,,,www.thesoundlounge.org.uk,E09000029,12/27/2020
Sutton,Music venues (all),Claret Wine Bar,33 The Broadway,Sutton,,E09000029,Sutton,51.35876450294586,-0.21690161976872405,524245.96633902076,163696.92845334118,5870019859,E05000560,Cheam,,E09000029,12/27/2020
Sutton,Music venues (all),Revolution,42795 High Street,Sutton,,E09000029,Sutton,51.35950068178745,-0.19160736100323736,526004.965862593,163821.92842046003,5870030304,E05000567,Sutton West,,E09000029,12/27/2020
Sutton,Music venues (all),Wallington Arms,6 Woodcote Road,Sutton,,E09000029,Sutton,51.360085817367896,-0.15015891460273187,528888.9650810962,163958.9283820431,5870077343,E05000570,Wallington South,www.wallingtonarms.com,E09000029,12/27/2020
Sutton,Music venues (all),Bounce,57 High Street,Sutton,,E09000029,Sutton,51.361563973329915,-0.19244541721383537,525940.96588055,164049.92835806333,5870122285,E05000564,Sutton Central,,E09000029,12/27/2020
Sutton,Music venues (all),New Inn,16-18 Myrtle Road,Sutton,,E09000029,Sutton,51.364664241383934,-0.187065660749106,526306.9657818488,164403.92826039589,5870048302,E05000564,Sutton Central,,E09000029,12/27/2020
Sutton,Music venues (all),The Coach & Horses,10 High Street,Sutton,,E09000029,Sutton,51.364945180205225,-0.16237483765720692,528024.9653164825,164477.92824417696,5870077971,E05000558,Carshalton Central,,E09000029,12/27/2020
Sutton,Music venues (all),Race Horse,17 West Street,Sutton,,E09000029,Sutton,51.36630066674291,-0.16739171394121263,527671.9654120337,164619.92820597108,5870063158,E05000558,Carshalton Central,www.theracehorsepub.co.uk,E09000029,12/27/2020
Sutton,Music venues (all),The Boom Boom Club,Sutton United Football Club The Borough Sports Ground,Gander Green Ln,Sutton,E09000029,Sutton,51.36761052497018,-0.2043611927612379,525094.9661124857,164701.9281807969,0,E05000567,Sutton West,www.feenstra.co.uk/boomboom,E09000029,12/27/2020
Sutton,Music venues (all),The Railway Tavern,47 North Street,Sutton,,E09000029,Sutton,51.36927119755269,-0.1658508121006837,527770.9653855228,164952.928114374,5870062829,E05000568,The Wrythe,www.railwaytaverncarshalton.co.uk,E09000029,12/27/2020
Sutton,Music venues (all),The Red Lion,Hackbridge Road Sutton,,,E09000029,Sutton,51.378350614805846,-0.1576133532386902,528318.9652352479,165976.9278344722,5870110898,E05000571,Wandle Valley,,E09000029,12/27/2020
Sutton,Music venues (grassroots),The Sound Lounge,216-220 High Street,,,,,51.36654935595027,-0.19421874484373192,525803.8627152424,164601.26359956502,,,,www.thesoundlounge.org.uk,E09000029,12/27/2020
Sutton,Pubs,Plough,Croydon Road,Croydon,Beddington,E09000029,Sutton,51.3672060131837,-0.131871226275317,530141.9647415251,164782.9281579678,,E05000555,Beddington North,,E09000029,12/27/2020
Sutton,Pubs,Harvest Home,27 Beddington Lane,Croydon,,E09000029,Sutton,51.372032402596524,-0.1317035198538915,530139.964742328,165319.92801204376,,E05000555,Beddington North,,E09000029,12/27/2020
Sutton,Pubs,Centrals Bar & Lounge,169 Central Road,Worcester Park,,E09000029,Sutton,51.379704378143046,-0.24403839780722855,522300.96687018836,165979.92783473263,,E05000561,Nonsuch,,E09000029,12/27/2020
Sutton,Pubs,Brook,181 Central Road,Worcester Park,,E09000029,Sutton,51.379704378143046,-0.24403839780722855,522300.96687018836,165979.92783473263,,E05000561,Nonsuch,,E09000029,12/27/2020
Sutton,Pubs,Rumours,25-27 Central Road,Worcester Park,,E09000029,Sutton,51.37706704238679,-0.2390812358848132,522652.96677629306,165694.92791122803,,E05000561,Nonsuch,,E09000029,12/27/2020
Sutton,Pubs,North End Tavern,245 Cheam Common Road,Worcester Park,,E09000029,Sutton,51.37626724729338,-0.2367266368809705,522818.966731895,165609.92793387297,,E05000561,Nonsuch,,E09000029,12/27/2020
Sutton,Pubs,H G Wells,101 Cheam Common Road,Worcester Park,,E09000029,Sutton,51.373192623658824,-0.23260608525512216,523113.9666507138,165274.92802540906,,E05000572,Worcester Park,,E09000029,12/27/2020
Sutton,Pubs,Slug & Lettuce,33 High Street,Sutton,,E09000029,Sutton,51.36066169736518,-0.19225111063647654,525956.9658758555,163949.92838595592,,E05000564,Sutton Central,,E09000029,12/27/2020
Sutton,Pubs,O'Neill's,37 High Street,Sutton,,E09000029,Sutton,51.36066169736518,-0.19225111063647654,525956.9658758555,163949.92838595592,,E05000564,Sutton Central,,E09000029,12/27/2020
Sutton,Pubs,EBB & Flow Cafe Bar,59-61 High Street,Sutton,,E09000029,Sutton,51.36156463820475,-0.1924884839934585,525937.965881268,164049.92835857335,,E05000564,Sutton Central,,E09000029,12/27/2020
Sutton,Pubs,Shinner & Sudtone,67 High Street,Sutton,,E09000029,Sutton,51.36156463820475,-0.1924884839934585,525937.965881268,164049.92835857335,,E05000564,Sutton Central,,E09000029,12/27/2020
Sutton,Pubs,Moon on the Hill,5-9 Hill Road,Sutton,,E09000029,Sutton,51.361700874595385,-0.19315824594474282,525890.9658940795,164063.92835481424,,E05000564,Sutton Central,,E09000029,12/27/2020
Sutton,Pubs,All Bar One,2 Hill Road,Sutton,,E09000029,Sutton,51.361700874595385,-0.19315824594474282,525890.9658940795,164063.92835481424,,E05000564,Sutton Central,,E09000029,12/27/2020
Sutton,Pubs,Sutton Arms,60-62 High Street,Sutton,,E09000029,Sutton,51.361863113512904,-0.19201707325542178,525969.965872653,164083.92834920186,,E05000564,Sutton Central,,E09000029,12/27/2020
Sutton,Pubs,Cock & Bull,26-30 High Street,Sutton,,E09000029,Sutton,51.36088716471643,-0.19171076235007872,525993.9658658633,163975.92837876728,,E05000564,Sutton Central,,E09000029,12/27/2020
Sutton,Pubs,Old Bank,2 High Street,Sutton,,E09000029,Sutton,51.36013478843584,-0.19132383895449948,526022.9658577795,163892.92840147263,,E05000564,Sutton Central,,E09000029,12/27/2020
Sutton,Pubs,Crown,285 High Street,Sutton,,E09000029,Sutton,51.36789347550248,-0.19527060245871583,525726.9659403521,164748.9281676858,,E05000564,Sutton Central,,E09000029,12/27/2020
Sutton,Pubs,Winning Post,265 High Street,Sutton,,E09000029,Sutton,51.36789347550248,-0.19527060245871583,525726.9659403521,164748.9281676858,,E05000564,Sutton Central,,E09000029,12/27/2020
Sutton,Pubs,Robin Hood,52 West Street,Sutton,,E09000029,Sutton,51.363843610646455,-0.19623423084263938,525670.965954511,164296.92829131678,,E05000564,Sutton Central,,E09000029,12/27/2020
Sutton,Pubs,Holiday Inn,Gibson Road,Sutton,,E09000029,Sutton,51.361754214125284,-0.1966179608989685,525649.9659595953,164063.92835521378,,E05000567,Sutton West,,E09000029,12/27/2020
Sutton,Pubs,Gander,2 St. Dunstan's Hill,West Sutton,,E09000029,Sutton,51.37105391468866,-0.20959995448799432,524720.9662132321,165075.92808034923,,E05000560,Cheam,,E09000029,12/27/2020
Sutton,Pubs,Butterchurn,Erskine Road,Sutton,,E09000029,Sutton,51.36961434634059,-0.1815256973697071,526678.9656819943,164963.92810876237,,E05000568,The Wrythe,,E09000029,12/27/2020
Sutton,Pubs,Little Windsor,13 Greyhound Road,Sutton,,E09000029,Sutton,51.36401747382669,-0.1865309613159279,526345.9657709858,164332.9282803035,,E05000564,Sutton Central,,E09000029,12/27/2020
Sutton,Pubs,Nightingale,53 Carshalton Road,Sutton,,E09000029,Sutton,51.36275631990813,-0.18523049228366312,526439.965745121,164194.9283179834,,E05000564,Sutton Central,,E09000029,12/27/2020
Sutton,Pubs,Lord Nelson,32 Lower Road,Sutton,,E09000029,Sutton,51.36531453885448,-0.18376464621147615,526534.9657199729,164481.92823958833,,E05000564,Sutton Central,,E09000029,12/27/2020
Sutton,Pubs,California,267 Brighton Road,Belmont,,E09000029,Sutton,51.34384819188669,-0.1976942008205196,525623.9659682328,162070.92889695804,,E05000557,Belmont,,E09000029,12/27/2020
Sutton,Pubs,Inn on the Park,Ewell Road,Cheam,,E09000029,Sutton,51.35538311665299,-0.22221772297572612,523884.9664395661,163311.92855868768,,E05000560,Cheam,,E09000029,12/27/2020
Sutton,Pubs,Claret Wine Bar,33 The Broadway,Cheam,,E09000029,Sutton,51.35889909416255,-0.21688203118132623,524246.9663386154,163711.92844977265,,E05000560,Cheam,,E09000029,12/27/2020
Sutton,Pubs,Olde Red Lion,17 Park Road,Cheam,,E09000029,Sutton,51.359528661403445,-0.21629741094545052,524285.9663284577,163782.9284306338,,E05000560,Cheam,,E09000029,12/27/2020
Sutton,Pubs,Prince of Wales,28 Malden Road,Cheam,,E09000029,Sutton,51.36083699748957,-0.21776919999182437,524179.9663580046,163925.92839174438,,E05000560,Cheam,,E09000029,12/27/2020
Sutton,Pubs,Harrow Inn,6 High Street,Cheam,,E09000029,Sutton,51.35753328034477,-0.21577165245977428,524327.9663175535,163561.92849075323,,E05000560,Cheam,,E09000029,12/27/2020
Sutton,Pubs,Railway,32 Station Way,Cheam,,E09000029,Sutton,51.35656327928722,-0.21644129401613404,524283.96633014287,163452.92852035287,,E05000560,Cheam,,E09000029,12/27/2020
Sutton,Pubs,Nonsuch Inn,552 London Road,North Cheam,,E09000029,Sutton,51.37207204398032,-0.22569522324635963,523597.9665178882,165161.92805650522,,E05000561,Nonsuch,,E09000029,12/27/2020
Sutton,Pubs,Lord Nelson,837 London Road,North Cheam,,E09000029,Sutton,51.38015436402926,-0.21844208250049565,524080.9663872237,166072.92780843744,,E05000572,Worcester Park,,E09000029,12/27/2020
Sutton,Pubs,Plough,224 Sutton Common Road,Sutton,,E09000029,Sutton,51.380185288654786,-0.20162758268305128,525250.9660711163,166104.92780061782,,E05000563,Stonecot,,E09000029,12/27/2020
Sutton,Pubs,Porterhouse Steak Bar,13 Green Wrythe Lane,Carshalton,,E09000029,Sutton,51.37303049045856,-0.1687465824084421,527558.9654436368,165365.92800026422,,E05000568,The Wrythe,,E09000029,12/27/2020
Sutton,Pubs,Railway Tavern,47 North Street,Carshalton,,E09000029,Sutton,51.37023416803948,-0.16647321693559644,527724.9653980285,165058.9280855154,,E05000568,The Wrythe,,E09000029,12/27/2020
Sutton,Pubs,Sun,4 North Street,Carshalton,,E09000029,Sutton,51.36752813943439,-0.16422524575799968,527888.965353313,164761.92816772102,,E05000558,Carshalton Central,,E09000029,12/27/2020
Sutton,Pubs,Palmerston,31 Mill Lane,Carshalton,,E09000029,Sutton,51.368551308976755,-0.1623741443344885,528014.9653192759,164878.9281354781,,E05000558,Carshalton Central,,E09000029,12/27/2020
Sutton,Pubs,Hope,48 West Street,Carshalton,,E09000029,Sutton,51.367258717785575,-0.16712360996699746,527687.9654076044,164726.9281773743,,E05000558,Carshalton Central,,E09000029,12/27/2020
Sutton,Pubs,Racehorse,17 West Street,Carshalton,,E09000029,Sutton,51.36645277788884,-0.16734254410787217,527674.965411122,164636.92820185772,,E05000558,Carshalton Central,,E09000029,12/27/2020
Sutton,Pubs,Woodman Wine Bar,6 High Street,Carshalton,,E09000029,Sutton,51.36512422522413,-0.16117533803952158,528107.9652939275,164499.92823865288,,E05000558,Carshalton Central,,E09000029,12/27/2020
Sutton,Pubs,Coach & Horses,12 High Street,Carshalton,,E09000029,Sutton,51.36512422522413,-0.16117533803952158,528107.9652939275,164499.92823865288,,E05000558,Carshalton Central,,E09000029,12/27/2020
Sutton,Pubs,Greyhound Hotel,2 High Street,Carshalton,,E09000029,Sutton,51.364880264008605,-0.16454660811185867,527873.9653572728,164466.9282478224,,E05000558,Carshalton Central,,E09000029,12/27/2020
Sutton,Pubs,Windsor Castle,378 Carshalton Road,Carshalton,,E09000029,Sutton,51.362569321982576,-0.16916385699085132,527558.9654426358,164201.92831991508,,E05000558,Carshalton Central,,E09000029,12/27/2020
Sutton,Pubs,Dukes Head Hotel,The Green 6 Manor Road,Wallington,,E09000029,Sutton,51.36588696599565,-0.15305689558356222,528670.9651416885,164598.9282115444,,E05000569,Wallington North,,E09000029,12/27/2020
Sutton,Pubs,Star,89 Manor Road,Wallington,,E09000029,Sutton,51.361959233739775,-0.1503419985751532,528870.9650863925,164166.92832685856,,E05000569,Wallington North,,E09000029,12/27/2020
Sutton,Pubs,Wallington Arms,6-16 Woodcote Road,Wallington,,E09000029,Sutton,51.359825640760334,-0.1501981237080397,528886.9650814732,163929.9283903165,,E05000570,Wallington South,,E09000029,12/27/2020
Sutton,Pubs,Red Lion,Hackbridge Road,Wallington,,E09000029,Sutton,51.37835061481042,-0.15761335323989803,528318.9652351501,165976.9278349789,,E05000571,Wandle Valley,,E09000029,12/27/2020
Sutton,Pubs,Grange,"Beddington Park, London Road",Wallington,,E09000029,Sutton,51.371754943049794,-0.15164263355487556,528752.9651185411,165253.92803334078,,E05000569,Wallington North,,E09000029,12/27/2020
Sutton,Pubs,Rose & Crown,"London Road, Wallington Corner",Wallington,,E09000029,Sutton,51.36844489104989,-0.1550227550667395,528526.9651806765,164879.92813545087,,E05000569,Wallington North,,E09000029,12/27/2020
Sutton,Pubs,Whispering Moon,25 Ross Parade,Wallington,,E09000029,Sutton,51.36028679195963,-0.14921715987751308,528953.9650633814,163982.92837610713,,E05000570,Wallington South,,E09000029,12/27/2020
Sutton,Skate Parks,West-Sutton,,,,E09000029,Sutton,51.36819888007281,-0.20294496833423392,525191.9430756262,164769.7685560006,0,E05000567,Sutton West,,E09000029,12/27/2020
